[
    {
        "link": "pasarelas_rio_vero/1211",
        "name": "Pasarelas Rio Vero",
        "state": "Spain",
        "region": "Aragon",
        "locality": "Huesca",
        "lat": 42.17462,
        "lon": 0.03261,
        "begin": "Siera de Guara",
        "target": "Rio Vero",
        "targetheight": 850,
        "duration": 120,
        "elevationdiff": 337,
        "difficultynumeric": 1
    },
    {
        "link": "felsental_bei_eybach/1960",
        "name": "Felsental bei Eybach",
        "state": "Germany",
        "region": "Baden-Württemberg",
        "locality": "Schwäbische Alb",
        "lat": 48.633906,
        "lon": 9.871184,
        "begin": "Geislingen an der Steige (440m)",
        "target": "Felsental bei Eybach",
        "targetheight": 640,
        "elevationdiff": 200,
        "difficultynumeric": 1
    },
    {
        "link": "breitachklamm_klammweg_/2025",
        "name": "Breitachklamm (Klammweg)",
        "state": "Germany",
        "region": "Bayern",
        "locality": "Allgäuer Alpen (Bayern)",
        "lat": 47.3869,
        "lon": 10.229,
        "begin": "Oberstdorf",
        "target": "Alpe Dornach",
        "duration": 240,
        "difficultynumeric": 1
    },
    {
        "link": "eistobel_klammweg_/2089",
        "name": "Eistobel (Klammweg)",
        "state": "Germany",
        "region": "Bayern",
        "locality": "Allgäuer Alpen (Bayern)",
        "lat": 47.641,
        "lon": 10.025,
        "begin": "Maierhöfen (741m)",
        "target": "Eingang Schüttentobel",
        "duration": 120,
        "elevationdiff": 125,
        "difficultynumeric": 1
    },
    {
        "link": "gaengele/1685",
        "name": "Gängele",
        "state": "Germany",
        "region": "Bayern",
        "locality": "Allgäuer Alpen (Bayern)",
        "lat": 47.42734,
        "lon": 10.33117,
        "begin": "Reichenbach bei Oberstdorf, 867m",
        "target": "Entschenkopf",
        "targetheight": 2043,
        "difficultynumeric": 1
    },
    {
        "link": "gruentensteig/2046",
        "name": "Grüntensteig",
        "state": "Germany",
        "region": "Bayern",
        "locality": "Allgäuer Alpen (Bayern)",
        "lat": 47.555393,
        "lon": 10.320491,
        "begin": "Rettenberg (806 m)",
        "target": "Grünten",
        "targetheight": 1738,
        "duration": 210,
        "elevationdiff": 660,
        "difficultynumeric": 1
    },
    {
        "link": "haengebruecke_im_weissachtal/1698",
        "name": "Hängebrücke im Weißachtal",
        "state": "Germany",
        "region": "Bayern",
        "locality": "Allgäuer Alpen (Bayern)",
        "lat": 47.5167586947623,
        "lon": 10.0964838266373,
        "begin": "Oberstaufen-Steibis",
        "target": "Hängebrücke im Weißachtal",
        "targetheight": 1000,
        "duration": 75,
        "elevationdiff": 150,
        "difficultynumeric": 1
    },
    {
        "link": "hornburgsteig/2082",
        "name": "Hornburgsteig",
        "state": "Germany",
        "region": "Bayern",
        "locality": "Ammergauer Alpen",
        "lat": 47.570328,
        "lon": 10.768182,
        "begin": "Füssen (808m)",
        "target": "Hornburg",
        "targetheight": 1172,
        "duration": 105,
        "elevationdiff": 370,
        "difficultynumeric": 1
    },
    {
        "link": "jaegersteig/15",
        "name": "Jägersteig",
        "state": "Germany",
        "region": "Bayern",
        "locality": "Altmühltal",
        "lat": 48.85491,
        "lon": 11.07857,
        "begin": "Dollnstein",
        "target": "Dollnstein",
        "targetheight": 400,
        "duration": 120,
        "elevationdiff": 200,
        "difficultynumeric": 1
    },
    {
        "link": "hoellentalklamm_klammweg_/2026",
        "name": "Höllentalklamm (Klammweg)",
        "state": "Germany",
        "region": "Bayern",
        "locality": "Wetterstein (Bayern)",
        "lat": 47.441037,
        "lon": 11.033885,
        "begin": "Hammersbach (758 m)",
        "target": "Höllentalanger-Hütte",
        "targetheight": 1387,
        "elevationdiff": 629,
        "difficultynumeric": 1
    },
    {
        "link": "partnachklamm_klammweg_/1501",
        "name": "Partnachklamm (Klammweg)",
        "state": "Germany",
        "region": "Bayern",
        "locality": "Wetterstein (Bayern)",
        "lat": 47.4742873071547,
        "lon": 11.1153316497803,
        "begin": "Garmisch-Partenkirchen",
        "target": "Partnachklamm / Eckbauer",
        "targetheight": 750,
        "duration": 90,
        "elevationdiff": 40,
        "difficultynumeric": 1
    },
    {
        "link": "dammkarsteig/2045",
        "name": "Dammkarsteig",
        "state": "Germany",
        "region": "Bayern",
        "locality": "Karwendel (Bayern)",
        "lat": 47.438217,
        "lon": 11.270738,
        "begin": "Mittenwald (913 m)",
        "target": "Dammkar",
        "targetheight": 2330,
        "duration": 210,
        "elevationdiff": 200,
        "difficultynumeric": 1
    },
    {
        "link": "leutaschklamm_geisterklamm_klammweg_/1500",
        "name": "Leutaschklamm / Geisterklamm (Klammweg)",
        "state": "Germany",
        "region": "Bayern",
        "locality": "Karwendel (Bayern)",
        "lat": 47.43366,
        "lon": 11.25972,
        "begin": "Mittenwald (912m)",
        "target": "Leutascher Ache",
        "targetheight": 1012,
        "duration": 120,
        "elevationdiff": 200,
        "difficultynumeric": 1
    },
    {
        "link": "hirschberghaus_winterweg/1690",
        "name": "Hirschberghaus-Winterweg",
        "state": "Germany",
        "region": "Bayern",
        "locality": "Bayerische Voralpen",
        "lat": 47.6668324230045,
        "lon": 11.7054390907288,
        "begin": "Kreuth, 800m",
        "target": "Kratzer / Hirschberghaus",
        "targetheight": 1544,
        "duration": 210,
        "elevationdiff": 830,
        "difficultynumeric": 1
    },
    {
        "link": "trainsjoch_steig/140",
        "name": "Trainsjoch-Steig",
        "state": "Germany",
        "region": "Bayern",
        "locality": "Bayerische Voralpen",
        "lat": 47.61528,
        "lon": 12.05441,
        "begin": "Bayrischzell (800 m)",
        "target": "Trainsjoch",
        "targetheight": 1707,
        "duration": 285,
        "elevationdiff": 870,
        "difficultynumeric": 1
    },
    {
        "link": "wolfsschlucht_steig/1592",
        "name": "Wolfsschlucht-Steig",
        "state": "Germany",
        "region": "Bayern",
        "locality": "Bayerische Voralpen",
        "lat": 47.6231484594362,
        "lon": 11.7347770929337,
        "begin": "Wildbad Kreuth",
        "target": "Schildenstein",
        "targetheight": 1613,
        "duration": 240,
        "elevationdiff": 825,
        "difficultynumeric": 1
    },
    {
        "link": "weissbachschlucht/1668",
        "name": "Weißbachschlucht",
        "state": "Germany",
        "region": "Bayern",
        "locality": "Chiemgauer Alpen (Bayern)",
        "lat": 47.70626,
        "lon": 12.79656,
        "begin": "Schneizelreuth, 511m",
        "target": "Mauthäusl",
        "targetheight": 600,
        "duration": 180,
        "elevationdiff": 100,
        "difficultynumeric": 1
    },
    {
        "link": "almbachklamm_klammweg_/1681",
        "name": "Almbachklamm (Klammweg)",
        "state": "Germany",
        "region": "Bayern",
        "locality": "Berchtesgadener Alpen (Bayern)",
        "lat": 47.67,
        "lon": 13.03,
        "begin": "Marktschellenberg",
        "target": "Almbachklamm",
        "targetheight": 620,
        "duration": 180,
        "elevationdiff": 100,
        "difficultynumeric": 1
    },
    {
        "link": "schellenbergsattelsteig/1560",
        "name": "Schellenbergsattelsteig",
        "state": "Germany",
        "region": "Bayern",
        "locality": "Berchtesgadener Alpen (Bayern)",
        "lat": 47.7156052293499,
        "lon": 13.0089819431305,
        "begin": "Grödig, 446m",
        "target": "Schellenbergsattel",
        "targetheight": 1439,
        "duration": 60,
        "elevationdiff": 150,
        "difficultynumeric": 1
    },
    {
        "link": "sieben_fussfaelle_klettersteig/1897",
        "name": "Sieben Fußfälle Klettersteig",
        "state": "Germany",
        "region": "Rheinland-Pfalz",
        "locality": "Moseltal",
        "lat": 50.25095,
        "lon": 7.45565,
        "begin": "Alken (Mosel)",
        "target": "Bleidenberg",
        "targetheight": 250,
        "duration": 60,
        "elevationdiff": 180,
        "difficultynumeric": 1
    },
    {
        "link": "drachenfels_am_busenberger_holzschuhpfad_/1914",
        "name": "Drachenfels (am Busenberger Holzschuhpfad)",
        "state": "Germany",
        "region": "Rheinland-Pfalz",
        "locality": "Pfälzer Wald",
        "lat": 49.131389,
        "lon": 7.826944,
        "begin": "Busenberg",
        "target": "Drachenfels",
        "targetheight": 368,
        "duration": 30,
        "elevationdiff": 80,
        "difficultynumeric": 1
    },
    {
        "link": "hahnfels/1911",
        "name": "Hahnfels",
        "state": "Germany",
        "region": "Rheinland-Pfalz",
        "locality": "Pfälzer Wald",
        "lat": 49.156667,
        "lon": 7.810833,
        "begin": "Erfweiler",
        "target": "Hahnfels (Brückenfels)  'Felslandblick'",
        "targetheight": 290,
        "duration": 15,
        "elevationdiff": 65,
        "difficultynumeric": 1
    },
    {
        "link": "roemerfels/1910",
        "name": "Römerfels",
        "state": "Germany",
        "region": "Rheinland-Pfalz",
        "locality": "Pfälzer Wald",
        "lat": 49.151389,
        "lon": 7.779722,
        "begin": "Dahn",
        "target": "Römerfels",
        "targetheight": 376,
        "duration": 105,
        "elevationdiff": 152,
        "difficultynumeric": 1
    },
    {
        "link": "winschertfels_gesicherter_steig/1972",
        "name": "Winschertfels - gesicherter Steig",
        "state": "Germany",
        "region": "Rheinland-Pfalz",
        "locality": "Pfälzer Wald",
        "lat": 49.243059,
        "lon": 7.758412,
        "begin": "Merzalben",
        "target": "Winschertfels",
        "targetheight": 521,
        "duration": 45,
        "elevationdiff": 130,
        "difficultynumeric": 1
    },
    {
        "link": "bruedersteine/1803",
        "name": "Brüdersteine",
        "state": "Germany",
        "region": "Sachsen",
        "locality": "Elbsandsteingebirge / Sächsische Schweiz",
        "lat": 50.923611,
        "lon": 14.358333,
        "begin": "Hinterhermsdorf",
        "target": "Brüdersteine",
        "targetheight": 346,
        "duration": 90,
        "elevationdiff": 60,
        "difficultynumeric": 1
    },
    {
        "link": "burgruine_neurathen/1419",
        "name": "Burgruine Neurathen",
        "state": "Germany",
        "region": "Sachsen",
        "locality": "Elbsandsteingebirge / Sächsische Schweiz",
        "lat": 50.96092,
        "lon": 14.07576,
        "begin": "Stadt Wehlen",
        "target": "Bastei",
        "targetheight": 300,
        "duration": 30,
        "elevationdiff": 50,
        "difficultynumeric": 1
    },
    {
        "link": "gamrigsteig/1738",
        "name": "Gamrigsteig",
        "state": "Germany",
        "region": "Sachsen",
        "locality": "Elbsandsteingebirge / Sächsische Schweiz",
        "lat": 50.9583,
        "lon": 14.09662,
        "begin": "Pirna",
        "target": "Gamrig",
        "targetheight": 253,
        "duration": 765,
        "elevationdiff": 60,
        "difficultynumeric": 1
    },
    {
        "link": "heilige_stiege_versicherter_steig_/1415",
        "name": "Heilige Stiege (versicherter Steig)",
        "state": "Germany",
        "region": "Sachsen",
        "locality": "Elbsandsteingebirge / Sächsische Schweiz",
        "lat": 50.90597,
        "lon": 14.23996,
        "begin": "Schmilka",
        "target": "Affensteine",
        "targetheight": 419,
        "duration": 165,
        "elevationdiff": 310,
        "difficultynumeric": 1
    },
    {
        "link": "lehnsteig_versicherter_steig_/1110",
        "name": "Lehnsteig (versicherter Steig)",
        "state": "Germany",
        "region": "Sachsen",
        "locality": "Elbsandsteingebirge / Sächsische Schweiz",
        "lat": 50.90416,
        "lon": 14.24683,
        "begin": "Schmilka",
        "target": "Affensteine",
        "targetheight": 419,
        "duration": 160,
        "elevationdiff": 335,
        "difficultynumeric": 1
    },
    {
        "link": "zurueckestiege/1106",
        "name": "Zurückestiege",
        "state": "Germany",
        "region": "Sachsen",
        "locality": "Elbsandsteingebirge / Sächsische Schweiz",
        "lat": 50.90708,
        "lon": 14.2328,
        "begin": "Schmilka",
        "target": "Affensteine",
        "targetheight": 419,
        "duration": 185,
        "elevationdiff": 300,
        "difficultynumeric": 1
    },
    {
        "link": "felsentor_auf_dem_toepfer/1722",
        "name": "Felsentor auf dem Töpfer",
        "state": "Germany",
        "region": "Sachsen",
        "locality": "Zittauer Gebirge / Oberlausitz",
        "lat": 50.84931,
        "lon": 14.76164,
        "begin": "Zittau",
        "target": "Töpfer",
        "targetheight": 575,
        "duration": 150,
        "elevationdiff": 100,
        "difficultynumeric": 1
    },
    {
        "link": "scharfenstein/1721",
        "name": "Scharfenstein",
        "state": "Germany",
        "region": "Sachsen",
        "locality": "Zittauer Gebirge / Oberlausitz",
        "lat": 50.83,
        "lon": 14.74,
        "begin": "Zittau",
        "target": "Scharfenstein",
        "targetheight": 564,
        "duration": 90,
        "elevationdiff": 105,
        "difficultynumeric": 1
    },
    {
        "link": "silinkuv_dul_/2074",
        "name": "Silinkuv Dul ",
        "state": "Czech Republic",
        "region": "Pardubicky kraj (Pardubitzer Region)",
        "locality": "Chrudim",
        "lat": 49.834273,
        "lon": 16.043515,
        "begin": "empty",
        "duration": 120,
        "difficultynumeric": 1
    },
    {
        "link": "combe_de_biaufond/1070",
        "name": "Combe de Biaufond",
        "state": "Switzerland",
        "region": "Schweizer Mittelland",
        "locality": "Schweizer Jura",
        "lat": 47.165588,
        "lon": 6.859677,
        "begin": "Biaufond (611 m)",
        "target": "La Ferriere",
        "targetheight": 1005,
        "duration": 75,
        "elevationdiff": 400,
        "difficultynumeric": 1
    },
    {
        "link": "cholerenschlucht_versicherter_klammweg_/1497",
        "name": "Cholerenschlucht (versicherter Klammweg)",
        "state": "Switzerland",
        "region": "Schweizer Mittelland",
        "locality": "Berner Alpen Nord",
        "lat": 46.5154057000173,
        "lon": 7.58296966552734,
        "begin": "Thun (565 m. ü. M.)",
        "target": "Brücke über den Tschentbach",
        "targetheight": 1210,
        "duration": 110,
        "elevationdiff": 75,
        "difficultynumeric": 1
    },
    {
        "link": "gorges_du_dailley/1063",
        "name": "Gorges du Dailley",
        "state": "Switzerland",
        "region": "Wallis",
        "locality": "Mont Blanc / Chablais",
        "lat": 46.12956,
        "lon": 7.02045,
        "begin": "Martigny (467m)",
        "target": "Van d'en Bas",
        "targetheight": 1269,
        "duration": 85,
        "elevationdiff": 189,
        "difficultynumeric": 1
    },
    {
        "link": "passerelle_de_corbassiere/2102",
        "name": "Passerelle de Corbassiere",
        "state": "Switzerland",
        "region": "Wallis",
        "locality": "Walliser Alpen",
        "lat": 46.01256101,
        "lon": 7.2946322,
        "begin": "Fionnay (1491 m)",
        "target": "Passerelle de Corbassiere",
        "targetheight": 2365,
        "duration": 300,
        "elevationdiff": 874,
        "difficultynumeric": 1
    },
    {
        "link": "touristensteig/434",
        "name": "Touristensteig",
        "state": "Austria",
        "region": "Kärnten",
        "locality": "Gailtaler Alpen",
        "lat": 46.588783,
        "lon": 13.62642,
        "begin": "Arnoldstein (579 m)",
        "target": "Dobratsch",
        "targetheight": 2166,
        "duration": 370,
        "elevationdiff": 1540,
        "difficultynumeric": 1
    },
    {
        "link": "vogelbergsteig/286",
        "name": "Vogelbergsteig",
        "state": "Austria",
        "region": "Niederösterreich",
        "locality": "Wachau / Dunkelsteiner Wald",
        "lat": 48.392732,
        "lon": 15.523678,
        "begin": "Dürnstein (209)",
        "target": "Vogelberg",
        "targetheight": 546,
        "duration": 150,
        "elevationdiff": 350,
        "difficultynumeric": 1
    },
    {
        "link": "eselsteinsteig/317",
        "name": "Eselsteinsteig",
        "state": "Austria",
        "region": "Niederösterreich",
        "locality": "Rax (West, NÖ)",
        "lat": 47.652512,
        "lon": 15.850506,
        "begin": "Passhöhe Semmering (985 m)",
        "target": "Eselstein",
        "targetheight": 1004,
        "duration": 90,
        "elevationdiff": 50,
        "difficultynumeric": 1
    },
    {
        "link": "voellerin/333",
        "name": "Völlerin",
        "state": "Austria",
        "region": "Niederösterreich",
        "locality": "Hohe Wand (Gutensteiner)",
        "lat": 47.828053,
        "lon": 16.050656,
        "begin": "Oberhöflein (508 m)",
        "target": "Gasthaus Postl",
        "targetheight": 892,
        "duration": 105,
        "elevationdiff": 375,
        "difficultynumeric": 1
    },
    {
        "link": "alexander_enzinger_weg/906",
        "name": "Alexander-Enzinger-Weg",
        "state": "Austria",
        "region": "Salzburg",
        "locality": "Hohe Tauern (Salzburg)",
        "lat": 47.26014,
        "lon": 12.73927,
        "begin": "Kaprun",
        "target": "Krefelderhütte",
        "targetheight": 2295,
        "duration": 270,
        "elevationdiff": 775,
        "difficultynumeric": 1
    },
    {
        "link": "dopplersteig/213",
        "name": "Dopplersteig",
        "state": "Austria",
        "region": "Salzburg",
        "locality": "Berchtesgadener Alpen (Salzburg)",
        "lat": 47.7277019962839,
        "lon": 13.0084937810898,
        "begin": "Grödig (446 m)",
        "target": "Salzburger Hochthron",
        "targetheight": 1853,
        "duration": 390,
        "elevationdiff": 1400,
        "difficultynumeric": 1
    },
    {
        "link": "gamsbocksteig/1488",
        "name": "Gamsbocksteig",
        "state": "Austria",
        "region": "Tirol",
        "locality": "Tannheimer Berge",
        "lat": 47.4742437960626,
        "lon": 10.5876874923706,
        "begin": "Nesselwängle (1147m)",
        "target": "Krinnenspitze",
        "targetheight": 2002,
        "duration": 180,
        "elevationdiff": 470,
        "difficultynumeric": 1
    },
    {
        "link": "elsenklamm_eisenklamm/1682",
        "name": "Elsenklamm / Eisenklamm",
        "state": "Austria",
        "region": "Tirol",
        "locality": "Zillertaler Alpen (Tirol)",
        "lat": 47.05646,
        "lon": 11.92281,
        "begin": "Mayrhofen, 633m",
        "target": "Lapenscharte",
        "targetheight": 2701,
        "duration": 330,
        "elevationdiff": 1600,
        "difficultynumeric": 1
    },
    {
        "link": "hohe_koepfe_steig/28",
        "name": "Hohe-Köpfe-Steig",
        "state": "Austria",
        "region": "Vorarlberg",
        "locality": "Rätikon (Vorarlberg / LI)",
        "lat": 47.166194,
        "lon": 9.623285,
        "begin": "Gurtis (904 m)",
        "target": "Hohe Köpfe",
        "targetheight": 2045,
        "duration": 480,
        "elevationdiff": 1025,
        "difficultynumeric": 1
    },
    {
        "link": "saulajochsteig/35",
        "name": "Saulajochsteig",
        "state": "Austria",
        "region": "Vorarlberg",
        "locality": "Rätikon (Vorarlberg / LI)",
        "lat": 47.06634,
        "lon": 9.75477,
        "begin": "Brand (1037 m)",
        "target": "Saulajoch",
        "targetheight": 2065,
        "duration": 105,
        "elevationdiff": 125,
        "difficultynumeric": 1
    },
    {
        "link": "zimbajochsteig/37",
        "name": "Zimbajochsteig",
        "state": "Austria",
        "region": "Vorarlberg",
        "locality": "Rätikon (Vorarlberg / LI)",
        "lat": 47.06634,
        "lon": 9.75477,
        "begin": "Brand (1037 m)",
        "target": "Zimbajoch",
        "targetheight": 2387,
        "duration": 450,
        "elevationdiff": 1200,
        "difficultynumeric": 1
    },
    {
        "link": "gemsteltal/1561",
        "name": "Gemsteltal",
        "state": "Austria",
        "region": "Vorarlberg",
        "locality": "Lechquellengebirge + Allgäuer Alpen (Vorarlberg)",
        "lat": 47.298441338887,
        "lon": 10.1523542404175,
        "begin": "Mittelberg im Kleinwalsertal, 1218m",
        "target": "Obere Gemstelalpe",
        "targetheight": 1692,
        "elevationdiff": 525,
        "difficultynumeric": 1
    },
    {
        "link": "klettersteige_mittagskofel_jof_di_miezegnot_verfallen_/1221",
        "name": "Klettersteige Mittagskofel - Jof di Miezegnot (verfallen)",
        "state": "Italy",
        "region": "Friaul",
        "locality": "Julische Alpen (Belluno / Friaul)",
        "lat": 46.47397,
        "lon": 13.45007,
        "begin": "Wolfsbach - Valbruna (807 m)",
        "target": "Mittagskofel (Jof di Miezegnot)",
        "targetheight": 2087,
        "duration": 390,
        "elevationdiff": 1083,
        "difficultynumeric": 1
    },
    {
        "link": "sentiero_del_fiume/798",
        "name": "Sentiero del Fiume",
        "state": "Italy",
        "region": "Lombardei",
        "locality": "Comer See",
        "lat": 45.936383,
        "lon": 9.347633,
        "begin": "Mandello del Lario (214 m)",
        "target": "Alpe di Era",
        "targetheight": 832,
        "duration": 195,
        "elevationdiff": 475,
        "difficultynumeric": 1
    },
    {
        "link": "il_tracciolino/497",
        "name": "Il Tracciolino",
        "state": "Italy",
        "region": "Lombardei",
        "locality": "Bergeller Alpen",
        "lat": 46.21878,
        "lon": 9.47814,
        "begin": "Novate Mezzola (212 m)",
        "target": "Val Codera",
        "targetheight": 914,
        "duration": 360,
        "elevationdiff": 625,
        "difficultynumeric": 1
    },
    {
        "link": "sentiero_attrezzato_san_valentino/746",
        "name": "Sentiero attrezzato San Valentino",
        "state": "Italy",
        "region": "Lombardei",
        "locality": "Gardaseeberge (Lombardei)",
        "lat": 45.69856,
        "lon": 10.66313,
        "begin": "Gargnano",
        "target": "San Valentino",
        "targetheight": 772,
        "duration": 120,
        "elevationdiff": 250,
        "difficultynumeric": 1
    },
    {
        "link": "sentiero_attrezzato_brigata_alpina_taurinense/821",
        "name": "Sentiero attrezzato Brigata Alpina Taurinense",
        "state": "Italy",
        "region": "Piemont / Aosta",
        "locality": "Grajische Alpen",
        "lat": 45.04459,
        "lon": 6.73818,
        "begin": "Bardonecchia (1258 m)",
        "target": "Punta Charra",
        "targetheight": 2844,
        "duration": 480,
        "elevationdiff": 1400,
        "difficultynumeric": 1
    },
    {
        "link": "sentiero_al_corno_bussola/1624",
        "name": "Sentiero al Corno Bussola",
        "state": "Italy",
        "region": "Piemont / Aosta",
        "locality": "Aostatal",
        "lat": 45.7948,
        "lon": 7.73878,
        "begin": "Brusson",
        "target": "Corno Bussola",
        "targetheight": 3024,
        "duration": 360,
        "elevationdiff": 1635,
        "difficultynumeric": 1
    },
    {
        "link": "vellauer_felsenweg/697",
        "name": "Vellauer Felsenweg",
        "state": "Italy",
        "region": "Südtirol-Trentino",
        "locality": "Vinschgau Nord",
        "lat": 46.69546,
        "lon": 11.10976,
        "begin": "Meran (325 m)",
        "target": "Hochmut",
        "targetheight": 1400,
        "duration": 135,
        "elevationdiff": 500,
        "difficultynumeric": 1
    },
    {
        "link": "friedensweg_via_della_pace/630",
        "name": "Friedensweg / Via della Pace",
        "state": "Italy",
        "region": "Südtirol-Trentino",
        "locality": "Fanes",
        "lat": 46.58513,
        "lon": 12.04185,
        "begin": "St. Kassian im Hochabteital (1536 m)",
        "target": "Monte Vallon Bianco",
        "targetheight": 2687,
        "duration": 390,
        "elevationdiff": 1000,
        "difficultynumeric": 1
    },
    {
        "link": "oberbachernjoch_sandbueheljoch/1581",
        "name": "Oberbachernjoch-Sandbüheljoch",
        "state": "Italy",
        "region": "Südtirol-Trentino",
        "locality": "Sextener Dolomiten",
        "lat": 46.62865,
        "lon": 12.34286,
        "begin": "Misurina",
        "target": "Cengia-Grat",
        "targetheight": 2584,
        "duration": 405,
        "elevationdiff": 1000,
        "difficultynumeric": 1
    },
    {
        "link": "touristensteig_monte_piana_/1670",
        "name": "Touristensteig (Monte Piana)",
        "state": "Italy",
        "region": "Südtirol-Trentino",
        "locality": "Sextener Dolomiten",
        "lat": 46.61637,
        "lon": 12.2385,
        "begin": "Toblach",
        "target": "Monte Piana",
        "targetheight": 2324,
        "duration": 300,
        "elevationdiff": 890,
        "difficultynumeric": 1
    },
    {
        "link": "slap_kozjak/2018",
        "name": "Slap Kozjak",
        "state": "Slovenia",
        "region": "Slowenien Nord",
        "locality": "Julische Alpen (Slowenien)",
        "lat": 46.262,
        "lon": 13.5938,
        "begin": "Kobarid (Karfreit)",
        "target": "Wasserfall Slap Kozjak",
        "targetheight": 330,
        "duration": 50,
        "elevationdiff": 100,
        "difficultynumeric": 1
    },
    {
        "link": "echelles_de_la_mort_leiternsteig_/1069",
        "name": "Echelles de la Mort (Leiternsteig)",
        "state": "France",
        "region": "Franche-Comte",
        "locality": "Jura / Doubs",
        "lat": 47.186535,
        "lon": 6.873119,
        "begin": "Biaufond (611 m)",
        "target": "Sur le Roches",
        "targetheight": 990,
        "duration": 60,
        "elevationdiff": 80,
        "difficultynumeric": 1.5
    },
    {
        "link": "les_canyons_de_lantosque_les_etroits_de_riou/1135",
        "name": "Les Canyons de Lantosque - Les étroits de Riou",
        "state": "France",
        "region": "Provence",
        "locality": "Seealpen",
        "lat": 43.9667,
        "lon": 7.31667,
        "begin": "Mairie de Lantosque (510m)",
        "target": "Lantosque",
        "targetheight": 500,
        "duration": 180,
        "elevationdiff": 10,
        "difficultynumeric": 1.5
    },
    {
        "link": "pas_de_roc_les_espagnols_/907",
        "name": "Pas de Roc ´Les Espagnols´",
        "state": "France",
        "region": "Rhone Alpes",
        "locality": "Savoyen / Mont-Blanc",
        "lat": 45.9725989219457,
        "lon": 6.29922151565552,
        "begin": "Annecy (448 m)",
        "target": "Champ Laitier Dessous",
        "targetheight": 1380,
        "duration": 240,
        "elevationdiff": 433,
        "difficultynumeric": 1.5
    },
    {
        "link": "bacherloch/1562",
        "name": "Bacherloch",
        "state": "Germany",
        "region": "Bayern",
        "locality": "Allgäuer Alpen (Bayern)",
        "lat": 47.2952925221977,
        "lon": 10.273842215538,
        "begin": "Oberstdorf, 814m",
        "target": "Waltenberger Haus",
        "targetheight": 2084,
        "duration": 360,
        "elevationdiff": 1150,
        "difficultynumeric": 1.5
    },
    {
        "link": "gaisalptobelweg/2049",
        "name": "Gaisalptobelweg",
        "state": "Germany",
        "region": "Bayern",
        "locality": "Allgäuer Alpen (Bayern)",
        "lat": 47.440472,
        "lon": 10.300254,
        "begin": "Oberstdorf (813 m)",
        "target": "Gaisalpe",
        "targetheight": 1149,
        "duration": 100,
        "elevationdiff": 280,
        "difficultynumeric": 1.5
    },
    {
        "link": "gottesackerwand_steig/1754",
        "name": "Gottesackerwand-Steig",
        "state": "Germany",
        "region": "Bayern",
        "locality": "Allgäuer Alpen (Bayern)",
        "lat": 47.38613,
        "lon": 10.15157,
        "begin": "Oberstdorf",
        "target": "Untere Gottesackerwände",
        "targetheight": 1858,
        "duration": 420,
        "elevationdiff": 765,
        "difficultynumeric": 1.5
    },
    {
        "link": "imbergerhornsteig/1688",
        "name": "Imbergerhornsteig",
        "state": "Germany",
        "region": "Bayern",
        "locality": "Allgäuer Alpen (Bayern)",
        "lat": 47.4818286854624,
        "lon": 10.3542709350586,
        "begin": "Sonthofen, 742m",
        "target": "Imbergerhorn",
        "targetheight": 1656,
        "duration": 210,
        "elevationdiff": 500,
        "difficultynumeric": 1.5
    },
    {
        "link": "schrofenpass/2092",
        "name": "Schrofenpass",
        "state": "Germany",
        "region": "Bayern",
        "locality": "Allgäuer Alpen (Bayern)",
        "lat": 47.3524,
        "lon": 10.2669,
        "begin": "Oberstdorf (814m)",
        "target": "Schrofenpass zwischen dem Stillachtal südl. Oberstdorf und Warth im Lechtal",
        "targetheight": 1688,
        "duration": 200,
        "elevationdiff": 800,
        "difficultynumeric": 1.5
    },
    {
        "link": "starzlachklamm_klammweg_/1933",
        "name": "Starzlachklamm (Klammweg)",
        "state": "Germany",
        "region": "Bayern",
        "locality": "Allgäuer Alpen (Bayern)",
        "lat": 47.512222,
        "lon": 10.281111,
        "begin": "Sonthofen",
        "target": "Grünten",
        "targetheight": 1738,
        "duration": 360,
        "elevationdiff": 963,
        "difficultynumeric": 1.5
    },
    {
        "link": "stuibensteig/57",
        "name": "Stuibensteig",
        "state": "Germany",
        "region": "Bayern",
        "locality": "Allgäuer Alpen (Bayern)",
        "lat": 47.5289088005513,
        "lon": 10.195140838623,
        "begin": "Immenstadt",
        "target": "Stuiben",
        "targetheight": 1749,
        "duration": 270,
        "elevationdiff": 500,
        "difficultynumeric": 1.5
    },
    {
        "link": "klammspitzgrat_versicherter_normalweg/79",
        "name": "Klammspitzgrat - versicherter Normalweg",
        "state": "Germany",
        "region": "Bayern",
        "locality": "Ammergauer Alpen",
        "lat": 47.58026,
        "lon": 10.9076,
        "begin": "Schloss Linderhof (937 m)",
        "target": "Große Klammspitz - Feigenkopf",
        "targetheight": 1924,
        "duration": 390,
        "elevationdiff": 1000,
        "difficultynumeric": 1.5
    },
    {
        "link": "teufelstaettkopf_steig/1749",
        "name": "Teufelstättkopf-Steig",
        "state": "Germany",
        "region": "Bayern",
        "locality": "Ammergauer Alpen",
        "lat": 47.61,
        "lon": 11.01,
        "begin": "Unterammergau",
        "target": "Teufelstättkopf",
        "targetheight": 1755,
        "duration": 300,
        "elevationdiff": 885,
        "difficultynumeric": 1.5
    },
    {
        "link": "hupfleitenjoch/1507",
        "name": "Hupfleitenjoch",
        "state": "Germany",
        "region": "Bayern",
        "locality": "Wetterstein (Bayern)",
        "lat": 47.43915,
        "lon": 11.05089,
        "begin": "Garmisch-Partenkirchen (720m)",
        "target": "Osterfelder Kopf",
        "targetheight": 2015,
        "duration": 390,
        "elevationdiff": 1350,
        "difficultynumeric": 1.5
    },
    {
        "link": "stangensteig/1705",
        "name": "Stangensteig",
        "state": "Germany",
        "region": "Bayern",
        "locality": "Wetterstein (Bayern)",
        "lat": 47.468,
        "lon": 11.04,
        "begin": "Hammersbach (753 Meter)",
        "target": "Höllentalangerhütte",
        "targetheight": 1379,
        "duration": 150,
        "elevationdiff": 626,
        "difficultynumeric": 1.5
    },
    {
        "link": "gjaidsteig/1443",
        "name": "Gjaidsteig",
        "state": "Germany",
        "region": "Bayern",
        "locality": "Karwendel (Bayern)",
        "lat": 47.44695,
        "lon": 11.39027,
        "begin": "Hinterriß (928 m)",
        "target": "Bäralplsattel",
        "targetheight": 1820,
        "duration": 165,
        "elevationdiff": 425,
        "difficultynumeric": 1.5
    },
    {
        "link": "leitersteig_mittenwald/2090",
        "name": "Leitersteig Mittenwald",
        "state": "Germany",
        "region": "Bayern",
        "locality": "Karwendel (Bayern)",
        "lat": 47.433,
        "lon": 11.275,
        "begin": "Mittenwald (912 m)",
        "target": "Hängebrücke Sulzleklamm",
        "targetheight": 1200,
        "duration": 195,
        "elevationdiff": 300,
        "difficultynumeric": 1.5
    },
    {
        "link": "predigtstuhlsteig_karwendel_/1374",
        "name": "Predigtstuhlsteig (Karwendel)",
        "state": "Germany",
        "region": "Bayern",
        "locality": "Karwendel (Bayern)",
        "lat": 47.4412375113804,
        "lon": 11.2741184234619,
        "begin": "Mittenwald (912 m)",
        "target": "Predigtstuhl",
        "targetheight": 1902,
        "duration": 300,
        "elevationdiff": 1025,
        "difficultynumeric": 1.5
    },
    {
        "link": "brecherspitzsteig/142",
        "name": "Brecherspitzsteig",
        "state": "Germany",
        "region": "Bayern",
        "locality": "Bayerische Voralpen",
        "lat": 47.6756175673501,
        "lon": 11.8678522109985,
        "begin": "Neuhaus (801 m)",
        "target": "Brecherspitz",
        "targetheight": 1683,
        "duration": 180,
        "elevationdiff": 600,
        "difficultynumeric": 1.5
    },
    {
        "link": "erzherzog_johann_klause/1748",
        "name": "Erzherzog-Johann-Klause",
        "state": "Germany",
        "region": "Bayern",
        "locality": "Bayerische Voralpen",
        "lat": 47.6099,
        "lon": 11.89967,
        "begin": "Rottach-Egern (731 m)",
        "target": "Erzherzog-Johann-Klause",
        "targetheight": 814,
        "duration": 300,
        "elevationdiff": 170,
        "difficultynumeric": 1.5
    },
    {
        "link": "julius_mayr_weg/138",
        "name": "Julius-Mayr-Weg",
        "state": "Germany",
        "region": "Bayern",
        "locality": "Bayerische Voralpen",
        "lat": 47.6464099196374,
        "lon": 12.0994555950165,
        "begin": "Bayrischzell (800 m)",
        "target": "Brünnstein",
        "targetheight": 1619,
        "duration": 300,
        "elevationdiff": 875,
        "difficultynumeric": 1.5
    },
    {
        "link": "rosssteinsteig/139",
        "name": "Roßsteinsteig",
        "state": "Germany",
        "region": "Bayern",
        "locality": "Bayerische Voralpen",
        "lat": 47.6317312820305,
        "lon": 11.6762512922287,
        "begin": "Kreuth (772 m)",
        "target": "Rossstein",
        "targetheight": 1698,
        "duration": 180,
        "elevationdiff": 900,
        "difficultynumeric": 1.5
    },
    {
        "link": "taubensteinsteig/2033",
        "name": "Taubensteinsteig",
        "state": "Germany",
        "region": "Bayern",
        "locality": "Bayerische Voralpen",
        "lat": 47.659737,
        "lon": 11.920133,
        "begin": "Schliersee (784 m)",
        "target": "Taubenstein",
        "targetheight": 1693,
        "duration": 30,
        "elevationdiff": 75,
        "difficultynumeric": 1.5
    },
    {
        "link": "alpeltalsteig/1794",
        "name": "Alpeltalsteig",
        "state": "Germany",
        "region": "Bayern",
        "locality": "Berchtesgadener Alpen (Bayern)",
        "lat": 47.586101,
        "lon": 13.06945,
        "begin": "Berchtesgaden",
        "target": "Großer Archenkopf",
        "targetheight": 2391,
        "duration": 540,
        "elevationdiff": 1260,
        "difficultynumeric": 1.5
    },
    {
        "link": "doetzenkopf_versicherter_steig_/1778",
        "name": "Dötzenkopf (versicherter Steig)",
        "state": "Germany",
        "region": "Bayern",
        "locality": "Berchtesgadener Alpen (Bayern)",
        "lat": 47.7071,
        "lon": 12.88424,
        "begin": "Bad Reichenhall",
        "target": "Dötzenkopf",
        "targetheight": 1001,
        "duration": 180,
        "elevationdiff": 600,
        "difficultynumeric": 1.5
    },
    {
        "link": "mittagschartensteig_thomas_eder_steig/214",
        "name": "Mittagschartensteig / Thomas-Eder-Steig",
        "state": "Germany",
        "region": "Bayern",
        "locality": "Berchtesgadener Alpen (Bayern)",
        "lat": 47.7113930764103,
        "lon": 13.0002325773239,
        "begin": "Grödig (446 m)",
        "target": "Salzburger Hochthron",
        "targetheight": 1853,
        "duration": 390,
        "elevationdiff": 1400,
        "difficultynumeric": 1.5
    },
    {
        "link": "kletterweg_erdener_treppchen_praelat/1644",
        "name": "Kletterweg Erdener Treppchen / Prälat",
        "state": "Germany",
        "region": "Rheinland-Pfalz",
        "locality": "Moseltal",
        "lat": 49.98182,
        "lon": 7.02429,
        "begin": "Erden",
        "target": "Erdener Weinberg",
        "targetheight": 260,
        "duration": 120,
        "elevationdiff": 140,
        "difficultynumeric": 1.5
    },
    {
        "link": "mehring_rioler_klettersteig/1421",
        "name": "Mehring-Rioler Klettersteig",
        "state": "Germany",
        "region": "Rheinland-Pfalz",
        "locality": "Moseltal",
        "lat": 49.80708,
        "lon": 6.77339,
        "begin": "Mehring (140 m) / Riol (125 m)",
        "target": "Kammerwald­knüppchen",
        "targetheight": 322,
        "duration": 135,
        "elevationdiff": 197,
        "difficultynumeric": 1.5
    },
    {
        "link": "schinnkaulklettersteig_layensteig_strimmiger_berg_/1895",
        "name": "Schinnkaulklettersteig (Layensteig Strimmiger-Berg)",
        "state": "Germany",
        "region": "Rheinland-Pfalz",
        "locality": "Moseltal",
        "lat": 50.09826,
        "lon": 7.27014,
        "begin": "Strimmig",
        "target": "Strimmiger Berg",
        "targetheight": 400,
        "duration": 300,
        "elevationdiff": 250,
        "difficultynumeric": 1.5
    },
    {
        "link": "hoelderstein_klettersteig/1814",
        "name": "Hölderstein Klettersteig",
        "state": "Germany",
        "region": "Rheinland-Pfalz",
        "locality": "Westerwald",
        "lat": 50.62308,
        "lon": 7.54392,
        "begin": "Neustadt (Wied)",
        "target": "Hölderstein (211m)",
        "targetheight": 211,
        "duration": 90,
        "elevationdiff": 70,
        "difficultynumeric": 1.5
    },
    {
        "link": "buettelfels_am_dahner_felsenpfad_/1913",
        "name": "Büttelfels (am Dahner Felsenpfad)",
        "state": "Germany",
        "region": "Rheinland-Pfalz",
        "locality": "Pfälzer Wald",
        "lat": 49.151389,
        "lon": 7.779722,
        "begin": "Dahn",
        "target": "Büttelfels",
        "targetheight": 300,
        "duration": 240,
        "difficultynumeric": 1.5
    },
    {
        "link": "hockerstein_steig_am_rimbach_steig_/1339",
        "name": "Hockerstein-Steig (am Rimbach-Steig)",
        "state": "Germany",
        "region": "Rheinland-Pfalz",
        "locality": "Pfälzer Wald",
        "lat": 49.16715,
        "lon": 7.879967,
        "begin": "Schwanheim",
        "target": "Hockerstein",
        "targetheight": 320,
        "duration": 45,
        "difficultynumeric": 1.5
    },
    {
        "link": "pfaffenstein/1937",
        "name": "Pfaffenstein",
        "state": "Germany",
        "region": "Rheinland-Pfalz",
        "locality": "Pfälzer Wald",
        "lat": 49.05724,
        "lon": 7.74658,
        "begin": "Schönau (Pfalz)",
        "target": "Pfaffenstein",
        "targetheight": 325,
        "duration": 60,
        "elevationdiff": 60,
        "difficultynumeric": 1.5
    },
    {
        "link": "schweinsfelssteig/1938",
        "name": "Schweinsfelssteig",
        "state": "Germany",
        "region": "Rheinland-Pfalz",
        "locality": "Pfälzer Wald",
        "lat": 49.14018,
        "lon": 7.922034,
        "begin": "Silz",
        "target": "Schweinsfels",
        "targetheight": 370,
        "duration": 765,
        "elevationdiff": 60,
        "difficultynumeric": 1.5
    },
    {
        "link": "hermannseck_wolfsschlucht/1801",
        "name": "Hermannseck / Wolfsschlucht",
        "state": "Germany",
        "region": "Sachsen",
        "locality": "Elbsandsteingebirge / Sächsische Schweiz",
        "lat": 50.909856,
        "lon": 14.387733,
        "begin": "Hinterhermsdorf",
        "target": "Hermannseck",
        "targetheight": 320,
        "duration": 210,
        "elevationdiff": 160,
        "difficultynumeric": 1.5
    },
    {
        "link": "hocksteinstiege/1739",
        "name": "Hocksteinstiege",
        "state": "Germany",
        "region": "Sachsen",
        "locality": "Elbsandsteingebirge / Sächsische Schweiz",
        "lat": 50.98027,
        "lon": 14.1017,
        "begin": "Pirna",
        "target": "Hockstein",
        "targetheight": 286,
        "duration": 90,
        "elevationdiff": 190,
        "difficultynumeric": 1.5
    },
    {
        "link": "johanniswacht/1737",
        "name": "Johanniswacht",
        "state": "Germany",
        "region": "Sachsen",
        "locality": "Elbsandsteingebirge / Sächsische Schweiz",
        "lat": 50.84058,
        "lon": 14.04051,
        "begin": "Königstein (Sächs. Schweiz)",
        "target": "Bielatal",
        "targetheight": 432,
        "duration": 40,
        "elevationdiff": 70,
        "difficultynumeric": 1.5
    },
    {
        "link": "lilienstein_ueberschreitung/1195",
        "name": "Lilienstein Überschreitung",
        "state": "Germany",
        "region": "Sachsen",
        "locality": "Elbsandsteingebirge / Sächsische Schweiz",
        "lat": 50.92979,
        "lon": 14.08039,
        "begin": "Pirna",
        "target": "Lilienstein",
        "targetheight": 415,
        "duration": 80,
        "elevationdiff": 165,
        "difficultynumeric": 1.5
    },
    {
        "link": "papststein/1418",
        "name": "Papststein",
        "state": "Germany",
        "region": "Sachsen",
        "locality": "Elbsandsteingebirge / Sächsische Schweiz",
        "lat": 50.90155,
        "lon": 14.11924,
        "begin": "Königstein (Sächs.Schweiz)",
        "target": "Papststein",
        "targetheight": 452,
        "duration": 30,
        "elevationdiff": 90,
        "difficultynumeric": 1.5
    },
    {
        "link": "pfaffenstein_klammweg/1736",
        "name": "Pfaffenstein Klammweg",
        "state": "Germany",
        "region": "Sachsen",
        "locality": "Elbsandsteingebirge / Sächsische Schweiz",
        "lat": 50.89897,
        "lon": 14.0793,
        "begin": "Königstein (Sächs.Schweiz)",
        "target": "Pfaffenstein",
        "targetheight": 435,
        "duration": 770,
        "elevationdiff": 160,
        "difficultynumeric": 1.5
    },
    {
        "link": "robertfelsen/1970",
        "name": "Robertfelsen",
        "state": "Germany",
        "region": "Sachsen",
        "locality": "Zittauer Gebirge / Oberlausitz",
        "lat": 50.842222,
        "lon": 14.742778,
        "begin": "Oybin (393 m)",
        "target": "Robertfelsen",
        "targetheight": 575,
        "duration": 120,
        "elevationdiff": 90,
        "difficultynumeric": 1.5
    },
    {
        "link": "felsenpfad_von_khaa_kyjov_felsenburg_oberer_karlstein_kyjovsky_hrad_wuestes_schloss_enge_stiege/1822",
        "name": "Felsenpfad von Khaa (Kyjov) - Felsenburg Oberer Karlstein (Kyjovsky Hrad) - Wüstes Schloss - Enge Stiege",
        "state": "Czech Republic",
        "region": "Usti nad Labem (Aussig)",
        "locality": "Böhmische Schweiz (CZ)",
        "lat": 50.911422,
        "lon": 14.451142,
        "begin": "Krasna Lipa",
        "target": "Oberer Karlstein (Kyjovsky Hrad)",
        "targetheight": 440,
        "duration": 100,
        "elevationdiff": 90,
        "difficultynumeric": 1.5
    },
    {
        "link": "hornad_durchbruch/1915",
        "name": "Hornad Durchbruch",
        "state": "Slovakia",
        "region": "Presov (Preschau)",
        "locality": "Slowakisches Paradies",
        "lat": 48.96575,
        "lon": 20.385833,
        "begin": "Podlesok",
        "target": "Letanovsky mlyn",
        "targetheight": 580,
        "duration": 150,
        "elevationdiff": 40,
        "difficultynumeric": 1.5
    },
    {
        "link": "klastorisko_schlucht/1916",
        "name": "Klastorisko Schlucht",
        "state": "Slovakia",
        "region": "Presov (Preschau)",
        "locality": "Slowakisches Paradies",
        "lat": 48.96575,
        "lon": 20.385833,
        "begin": "Podlesok",
        "target": "Klastorisko",
        "targetheight": 740,
        "duration": 60,
        "elevationdiff": 200,
        "difficultynumeric": 1.5
    },
    {
        "link": "sucha_bela/1917",
        "name": "Sucha Bela",
        "state": "Slovakia",
        "region": "Presov (Preschau)",
        "locality": "Slowakisches Paradies",
        "lat": 48.96575,
        "lon": 20.385833,
        "begin": "Podlesok",
        "target": "Hochebene",
        "targetheight": 970,
        "duration": 120,
        "elevationdiff": 430,
        "difficultynumeric": 1.5
    },
    {
        "link": "velky_kysel/1921",
        "name": "Velky Kysel",
        "state": "Slovakia",
        "region": "Presov (Preschau)",
        "locality": "Slowakisches Paradies",
        "lat": 48.96575,
        "lon": 20.385833,
        "begin": "Klastorisko",
        "target": "Hochebene",
        "targetheight": 950,
        "duration": 120,
        "elevationdiff": 210,
        "difficultynumeric": 1.5
    },
    {
        "link": "velky_sokol/1919",
        "name": "Velky Sokol",
        "state": "Slovakia",
        "region": "Presov (Preschau)",
        "locality": "Slowakisches Paradies",
        "lat": 48.9335,
        "lon": 20.333833,
        "begin": "Sokol",
        "target": "Hochebene",
        "targetheight": 980,
        "duration": 150,
        "elevationdiff": 370,
        "difficultynumeric": 1.5
    },
    {
        "link": "combe_grede/1043",
        "name": "Combe Grede",
        "state": "Switzerland",
        "region": "Schweizer Mittelland",
        "locality": "Schweizer Jura",
        "lat": 47.141273,
        "lon": 7.031046,
        "begin": "Villeret (763 m)",
        "target": "Hotel Chassseral",
        "targetheight": 1548,
        "duration": 285,
        "elevationdiff": 800,
        "difficultynumeric": 1.5
    },
    {
        "link": "ischpfad/1399",
        "name": "Ischpfad",
        "state": "Switzerland",
        "region": "Schweizer Mittelland",
        "locality": "Berner Alpen Nord",
        "lat": 46.62434174,
        "lon": 8.0914709,
        "begin": "Grindelwald (1034 m)",
        "target": "Glecksteinhütte",
        "targetheight": 2317,
        "duration": 360,
        "elevationdiff": 925,
        "difficultynumeric": 1.5
    },
    {
        "link": "leiternweg_milchbach/1062",
        "name": "Leiternweg Milchbach",
        "state": "Switzerland",
        "region": "Schweizer Mittelland",
        "locality": "Berner Alpen Nord",
        "lat": 46.62709375,
        "lon": 8.07746172,
        "begin": "Grindelwald (1034 m)",
        "target": "Im undren Wächsel",
        "targetheight": 1450,
        "duration": 210,
        "difficultynumeric": 1.5
    },
    {
        "link": "roemerweg_teilweise_gesperrt_/872",
        "name": "Römerweg (teilweise gesperrt)",
        "state": "Switzerland",
        "region": "Schweizer Mittelland",
        "locality": "Berner Alpen Nord",
        "lat": 46.4296936610533,
        "lon": 7.71145820617676,
        "begin": "Thun (565 m. ü. M.)",
        "target": "Lötschenpass",
        "targetheight": 2690,
        "duration": 360,
        "elevationdiff": 1150,
        "difficultynumeric": 1.5
    },
    {
        "link": "grosser_mythensteig/851",
        "name": "Großer Mythensteig",
        "state": "Switzerland",
        "region": "Zentralschweiz",
        "locality": "Vierwaldstätter Alpen",
        "lat": 47.0279558428391,
        "lon": 8.69413375854492,
        "begin": "Einsiedeln (882 m)",
        "target": "Großer Mythen",
        "targetheight": 1899,
        "duration": 225,
        "elevationdiff": 493,
        "difficultynumeric": 1.5
    },
    {
        "link": "niederbauen_chulm_steig_niederbauen_chulm_/1065",
        "name": "Niederbauen-Chulm-Steig (Niederbauen-Chulm)",
        "state": "Switzerland",
        "region": "Zentralschweiz",
        "locality": "Vierwaldstätter Alpen",
        "lat": 46.944051250812,
        "lon": 8.55757713317871,
        "begin": "Brunnen, Kanton Schwyz (435 müM)",
        "target": "Niederbauen-Chulm",
        "targetheight": 1923,
        "duration": 300,
        "elevationdiff": 1175,
        "difficultynumeric": 1.5
    },
    {
        "link": "gerhard_orasch_klettersteig/1381",
        "name": "Gerhard Orasch Klettersteig",
        "state": "Austria",
        "region": "Kärnten",
        "locality": "Karawanken (Kärnten)",
        "lat": 46.44,
        "lon": 14.3,
        "begin": "Ferlach (466 m)",
        "target": "Loibler Baba",
        "targetheight": 1968,
        "duration": 230,
        "elevationdiff": 875,
        "difficultynumeric": 1.5
    },
    {
        "link": "stincesteig_stinzesteig/1310",
        "name": "Stincesteig / Stinzesteig",
        "state": "Austria",
        "region": "Kärnten",
        "locality": "Karawanken (Kärnten)",
        "lat": 46.45,
        "lon": 14.19,
        "begin": "Windisch Bleiberg (948 m)",
        "target": "Matschacher Sattel",
        "targetheight": 1712,
        "duration": 220,
        "elevationdiff": 675,
        "difficultynumeric": 1.5
    },
    {
        "link": "gipfelsteig_schanzriedel_/287",
        "name": "Gipfelsteig (Schanzriedel)",
        "state": "Austria",
        "region": "Niederösterreich",
        "locality": "Waldviertel",
        "lat": 48.464502,
        "lon": 15.573269,
        "begin": "Droß (385 m)",
        "target": "Schanzriedel",
        "targetheight": 508,
        "duration": 90,
        "elevationdiff": 150,
        "difficultynumeric": 1.5
    },
    {
        "link": "hoher_stein_steig/284",
        "name": "Hoher Stein Steig",
        "state": "Austria",
        "region": "Niederösterreich",
        "locality": "Waldviertel",
        "lat": 48.558519,
        "lon": 15.134547,
        "begin": "Utissenbach (586 m)",
        "target": "Hoher Stein",
        "targetheight": 659,
        "duration": 45,
        "elevationdiff": 125,
        "difficultynumeric": 1.5
    },
    {
        "link": "camillo_kronich_steig_brandschneide_/295",
        "name": "Camillo-Kronich-Steig (Brandschneide)",
        "state": "Austria",
        "region": "Niederösterreich",
        "locality": "Rax (West, NÖ)",
        "lat": 47.716974,
        "lon": 15.778489,
        "begin": "Gloggnitz (457m)",
        "target": "Rax-Hochfläche, Bergstation der Rax-Seilbahn",
        "targetheight": 1547,
        "duration": 300,
        "elevationdiff": 1021,
        "difficultynumeric": 1.5
    },
    {
        "link": "rudolfsteig/1193",
        "name": "Rudolfsteig",
        "state": "Austria",
        "region": "Niederösterreich",
        "locality": "Rax (Großes Höllental)",
        "lat": 47.7398,
        "lon": 15.74796,
        "begin": "Hirschwang",
        "target": "Klobentörl",
        "targetheight": 1648,
        "duration": 330,
        "elevationdiff": 1125,
        "difficultynumeric": 1.5
    },
    {
        "link": "schoenbrunnerstiege/316",
        "name": "Schönbrunnerstiege",
        "state": "Austria",
        "region": "Niederösterreich",
        "locality": "Rax (Großes Höllental)",
        "lat": 47.7437100138942,
        "lon": 15.7559394836426,
        "begin": "Hirschwang",
        "target": "Unteres Höllental",
        "targetheight": 700,
        "duration": 45,
        "elevationdiff": 150,
        "difficultynumeric": 1.5
    },
    {
        "link": "mariensteig/1191",
        "name": "Mariensteig",
        "state": "Austria",
        "region": "Niederösterreich",
        "locality": "Schneeberg",
        "lat": 47.73,
        "lon": 15.83,
        "begin": "Payerbach-Reichenau (500 m)",
        "target": "Friedrich-Haller-Haus",
        "targetheight": 1250,
        "duration": 270,
        "elevationdiff": 775,
        "difficultynumeric": 1.5
    },
    {
        "link": "fuerststeig/324",
        "name": "Fürststeig",
        "state": "Austria",
        "region": "Niederösterreich",
        "locality": "Flatzer Wand (Gutensteiner)",
        "lat": 47.7473460377646,
        "lon": 16.0081958770752,
        "begin": "Flatz (470 m)",
        "target": "Flatzer Wand",
        "targetheight": 790,
        "duration": 150,
        "elevationdiff": 300,
        "difficultynumeric": 1.5
    },
    {
        "link": "springlessteig/331",
        "name": "Springlessteig",
        "state": "Austria",
        "region": "Niederösterreich",
        "locality": "Hohe Wand (Gutensteiner)",
        "lat": 47.8111947327556,
        "lon": 16.0267353057861,
        "begin": "Grünbach am Schneeberg (557m)",
        "target": "Große Kanzel, Hubertus Haus",
        "targetheight": 946,
        "duration": 150,
        "elevationdiff": 528,
        "difficultynumeric": 1.5
    },
    {
        "link": "brennersteig/288",
        "name": "Brennersteig",
        "state": "Austria",
        "region": "Niederösterreich",
        "locality": "Wienerwald",
        "lat": 48.022967,
        "lon": 16.166361,
        "begin": "Baden",
        "target": "Hoher Lindkogel",
        "targetheight": 847,
        "duration": 300,
        "elevationdiff": 600,
        "difficultynumeric": 1.5
    },
    {
        "link": "schoberstein_gesicherter_steig_/264",
        "name": "Schoberstein (gesicherter Steig)",
        "state": "Austria",
        "region": "Oberösterreich",
        "locality": "Salzkammergutberge (Oberösterreich)",
        "lat": 47.794738,
        "lon": 13.538675,
        "begin": "Weißenbach am Attersee (475 m)",
        "target": "Schoberstein",
        "targetheight": 1037,
        "duration": 150,
        "elevationdiff": 560,
        "difficultynumeric": 1.5
    },
    {
        "link": "salzsteig/270",
        "name": "Salzsteig",
        "state": "Austria",
        "region": "Oberösterreich",
        "locality": "Totes Gebirge (Oberösterreich)",
        "lat": 47.62,
        "lon": 14.07,
        "begin": "Hinterstoder (591 m)",
        "target": "Salzsteigjoch",
        "targetheight": 1773,
        "duration": 300,
        "elevationdiff": 1150,
        "difficultynumeric": 1.5
    },
    {
        "link": "huettenanstieg_passauer_huette/1230",
        "name": "Hüttenanstieg Passauer Hütte",
        "state": "Austria",
        "region": "Salzburg",
        "locality": "Loferer + Leoganger Steinberge",
        "lat": 47.474263,
        "lon": 12.750676,
        "begin": "Leogang (788 m)",
        "target": "Passauer Hütte",
        "targetheight": 2051,
        "duration": 300,
        "elevationdiff": 1175,
        "difficultynumeric": 1.5
    },
    {
        "link": "purtschellersteig/241",
        "name": "Purtschellersteig",
        "state": "Austria",
        "region": "Salzburg",
        "locality": "Salzkammergutberge (Salzburg)",
        "lat": 47.776496,
        "lon": 13.432836,
        "begin": "St. Wolfgang (548 m)",
        "target": "Schafberg ",
        "targetheight": 1782,
        "duration": 240,
        "elevationdiff": 1250,
        "difficultynumeric": 1.5
    },
    {
        "link": "schober_nordwestanstieg/246",
        "name": "Schober-Nordwestanstieg",
        "state": "Austria",
        "region": "Salzburg",
        "locality": "Salzkammergutberge (Salzburg)",
        "lat": 47.815461,
        "lon": 13.304057,
        "begin": "Fuschl am Fuschlsee",
        "target": "Schober",
        "targetheight": 1328,
        "duration": 90,
        "elevationdiff": 425,
        "difficultynumeric": 1.5
    },
    {
        "link": "seemauernsteig/389",
        "name": "Seemauernsteig",
        "state": "Austria",
        "region": "Steiermark",
        "locality": "Hochschwab",
        "lat": 47.573651,
        "lon": 14.852532,
        "begin": "Leopoldsteiner See (628 m)",
        "target": "Hochblaser",
        "targetheight": 1771,
        "duration": 330,
        "elevationdiff": 1175,
        "difficultynumeric": 1.5
    },
    {
        "link": "raxenmaeuersteig/310",
        "name": "Raxenmäuersteig",
        "state": "Austria",
        "region": "Steiermark",
        "locality": "Rax (Steiermark)",
        "lat": 47.6770623,
        "lon": 15.721693,
        "begin": "Preiner Gscheid (1070 m)",
        "target": "Karl-Ludwig-Haus",
        "targetheight": 1804,
        "duration": 270,
        "elevationdiff": 850,
        "difficultynumeric": 1.5
    },
    {
        "link": "drischlsteig/47",
        "name": "Drischlsteig",
        "state": "Austria",
        "region": "Tirol",
        "locality": "Lechtaler Alpen",
        "lat": 47.25789,
        "lon": 10.67615,
        "begin": "Hochimst (1050 m)",
        "target": "Muttekopfhütte",
        "targetheight": 1934,
        "duration": 330,
        "elevationdiff": 200,
        "difficultynumeric": 1.5
    },
    {
        "link": "reuttener_hoehenweg/52",
        "name": "Reuttener Höhenweg",
        "state": "Austria",
        "region": "Tirol",
        "locality": "Lechtaler Alpen",
        "lat": 47.375176,
        "lon": 10.650943,
        "begin": "Berwang (1342 m)",
        "target": "Knittelkarspitze",
        "targetheight": 2376,
        "duration": 450,
        "elevationdiff": 1125,
        "difficultynumeric": 1.5
    },
    {
        "link": "werner_rietzler_steig/54",
        "name": "Werner-Rietzler-Steig",
        "state": "Austria",
        "region": "Tirol",
        "locality": "Lechtaler Alpen",
        "lat": 47.442387,
        "lon": 10.748566,
        "begin": "Heiterwang (994 m)",
        "target": "Thaneller",
        "targetheight": 2341,
        "duration": 360,
        "elevationdiff": 1375,
        "difficultynumeric": 1.5
    },
    {
        "link": "schlickesteig/1695",
        "name": "Schlickesteig",
        "state": "Austria",
        "region": "Tirol",
        "locality": "Tannheimer Berge",
        "lat": 47.5461,
        "lon": 10.615,
        "begin": "Vils (826m)",
        "target": "Grosse Schlicke",
        "targetheight": 2060,
        "duration": 480,
        "elevationdiff": 1250,
        "difficultynumeric": 1.5
    },
    {
        "link": "fuldaer_hoehenweg/1477",
        "name": "Fuldaer Höhenweg",
        "state": "Austria",
        "region": "Tirol",
        "locality": "Ötztaler Alpen (Tirol)",
        "lat": 46.935844,
        "lon": 10.828073,
        "begin": "Mandarfen (1675 m)",
        "target": "Taschachhaus",
        "targetheight": 2434,
        "duration": 360,
        "elevationdiff": 400,
        "difficultynumeric": 1.5
    },
    {
        "link": "habichtsteig/185",
        "name": "Habichtsteig",
        "state": "Austria",
        "region": "Tirol",
        "locality": "Stubaier Alpen (Tirol)",
        "lat": 47.043951,
        "lon": 11.28967,
        "begin": "Neustift-Neder/Stubaital, 970 m)",
        "target": "Habicht",
        "targetheight": 3277,
        "duration": 540,
        "elevationdiff": 2000,
        "difficultynumeric": 1.5
    },
    {
        "link": "kreuzspitzsteig/1595",
        "name": "Kreuzspitzsteig",
        "state": "Austria",
        "region": "Tirol",
        "locality": "Stubaier Alpen (Tirol)",
        "lat": 47.06472,
        "lon": 11.18258,
        "begin": "Falbeson (1212 m)",
        "target": "Kreuzspitze",
        "targetheight": 3084,
        "duration": 480,
        "elevationdiff": 1875,
        "difficultynumeric": 1.5
    },
    {
        "link": "theodor_streich_weg/166",
        "name": "Theodor-Streich-Weg",
        "state": "Austria",
        "region": "Tirol",
        "locality": "Stubaier Alpen (Tirol)",
        "lat": 47.19527,
        "lon": 10.9574,
        "begin": "Ötz (820 m)",
        "target": "Mittertaler Scharte",
        "targetheight": 2631,
        "duration": 420,
        "elevationdiff": 725,
        "difficultynumeric": 1.5
    },
    {
        "link": "spieljochsteig/132",
        "name": "Spieljochsteig",
        "state": "Austria",
        "region": "Tirol",
        "locality": "Rofan",
        "lat": 47.4245,
        "lon": 11.75154,
        "begin": "Maurach (975 m)",
        "target": "Spieljoch",
        "targetheight": 2236,
        "duration": 150,
        "elevationdiff": 400,
        "difficultynumeric": 1.5
    },
    {
        "link": "gamssteig/194",
        "name": "Gamssteig",
        "state": "Austria",
        "region": "Tirol",
        "locality": "Kitzbüheler Alpen",
        "lat": 47.32914,
        "lon": 11.94834,
        "begin": "Inneralpbach (1031 m)",
        "target": "Sagthaler Spitze (Sagtaler Spitze)",
        "targetheight": 2240,
        "duration": 390,
        "elevationdiff": 1200,
        "difficultynumeric": 1.5
    },
    {
        "link": "saazer_weg/1287",
        "name": "Saazer Weg",
        "state": "Austria",
        "region": "Tirol",
        "locality": "Hohe Tauern (Osttirol)",
        "lat": 47.044,
        "lon": 12.588,
        "begin": "Großdorf (1364 m)",
        "target": "Vordere Kendlspitze",
        "targetheight": 3088,
        "duration": 480,
        "elevationdiff": 800,
        "difficultynumeric": 1.5
    },
    {
        "link": "rudl_eller_weg/401",
        "name": "Rudl-Eller-Weg",
        "state": "Austria",
        "region": "Tirol",
        "locality": "Lienzer Dolomiten",
        "lat": 46.7648,
        "lon": 12.7986,
        "begin": "Lienz (673 m)",
        "target": "Hohes Törl",
        "targetheight": 2233,
        "duration": 270,
        "elevationdiff": 650,
        "difficultynumeric": 1.5
    },
    {
        "link": "boeser_tritt_steig/36",
        "name": "Böser-Tritt-Steig",
        "state": "Austria",
        "region": "Vorarlberg",
        "locality": "Rätikon (Vorarlberg / LI)",
        "lat": 47.06634,
        "lon": 9.75477,
        "begin": "Brand (1037 m)",
        "target": "Douglashütte",
        "targetheight": 1979,
        "duration": 45,
        "elevationdiff": 325,
        "difficultynumeric": 1.5
    },
    {
        "link": "drei_schwestern_steig/26",
        "name": "Drei-Schwestern-Steig",
        "state": "Austria",
        "region": "Vorarlberg",
        "locality": "Rätikon (Vorarlberg / LI)",
        "lat": 47.142089,
        "lon": 9.544487,
        "begin": "Triesenberg / Gaflei (1483) (Liechtenstein)",
        "target": "Drei Schwestern",
        "targetheight": 2052,
        "duration": 360,
        "elevationdiff": 1325,
        "difficultynumeric": 1.5
    },
    {
        "link": "fuerstensteig/27",
        "name": "Fürstensteig",
        "state": "Austria",
        "region": "Vorarlberg",
        "locality": "Rätikon (Vorarlberg / LI)",
        "lat": 47.145379,
        "lon": 9.547881,
        "begin": "Triesenberg / Gaflei (1483) (Liechtenstein)",
        "target": "Gafleispitze",
        "targetheight": 1856,
        "duration": 120,
        "elevationdiff": 400,
        "difficultynumeric": 1.5
    },
    {
        "link": "liechtensteiner_hoehenweg/29",
        "name": "Liechtensteiner Höhenweg",
        "state": "Austria",
        "region": "Vorarlberg",
        "locality": "Rätikon (Vorarlberg / LI)",
        "lat": 47.053933,
        "lon": 9.707427,
        "begin": "Nenzing (530 m)",
        "target": "Schesaplana",
        "targetheight": 2965,
        "duration": 555,
        "elevationdiff": 1650,
        "difficultynumeric": 1.5
    },
    {
        "link": "strausssteig/30",
        "name": "Straußsteig",
        "state": "Austria",
        "region": "Vorarlberg",
        "locality": "Rätikon (Vorarlberg / LI)",
        "lat": 47.053933,
        "lon": 9.707427,
        "begin": "Nenzing (530 m)",
        "target": "Schesaplana / Panüeler Kopf",
        "targetheight": 2965,
        "duration": 555,
        "elevationdiff": 1650,
        "difficultynumeric": 1.5
    },
    {
        "link": "binnelgrat/16",
        "name": "Binnelgrat",
        "state": "Austria",
        "region": "Vorarlberg",
        "locality": "Bregenzer Wald",
        "lat": 47.31204,
        "lon": 9.77737,
        "begin": "Ebnit (1088 m)",
        "target": "Hoher Freschen",
        "targetheight": 2004,
        "duration": 450,
        "elevationdiff": 950,
        "difficultynumeric": 1.5
    },
    {
        "link": "hasenstricksteig/1220",
        "name": "Hasenstricksteig",
        "state": "Austria",
        "region": "Vorarlberg",
        "locality": "Bregenzer Wald",
        "lat": 47.399494,
        "lon": 9.980675,
        "begin": "Bezau (650 m)",
        "target": "Winterstaude",
        "targetheight": 1877,
        "duration": 270,
        "elevationdiff": 275,
        "difficultynumeric": 1.5
    },
    {
        "link": "valueragrat/17",
        "name": "Valüragrat",
        "state": "Austria",
        "region": "Vorarlberg",
        "locality": "Bregenzer Wald",
        "lat": 47.30768,
        "lon": 9.77308,
        "begin": "Ebnit (1088 m)",
        "target": "Hoher Freschen",
        "targetheight": 2004,
        "duration": 450,
        "elevationdiff": 950,
        "difficultynumeric": 1.5
    },
    {
        "link": "elser_fuerkele_gesicherter_steig_/1707",
        "name": "Elser Fürkele (gesicherter Steig)",
        "state": "Austria",
        "region": "Vorarlberg",
        "locality": "Lechquellengebirge + Allgäuer Alpen (Vorarlberg)",
        "lat": 47.173001,
        "lon": 9.864903,
        "begin": "Bludenz",
        "target": "Elser Fürkele",
        "targetheight": 1865,
        "duration": 210,
        "elevationdiff": 575,
        "difficultynumeric": 1.5
    },
    {
        "link": "hochstarzel_gesicherter_steig_/1810",
        "name": "Hochstarzel (gesicherter Steig)",
        "state": "Austria",
        "region": "Vorarlberg",
        "locality": "Lechquellengebirge + Allgäuer Alpen (Vorarlberg)",
        "lat": 47.322461,
        "lon": 10.152122,
        "begin": "Baad, 1230m",
        "target": "Ochsenhöfer Köpfle – Hochstarzel",
        "targetheight": 1985,
        "duration": 270,
        "elevationdiff": 500,
        "difficultynumeric": 1.5
    },
    {
        "link": "sentiero_attrezzato_monte_chiampon/548",
        "name": "Sentiero attrezzato Monte Chiampon",
        "state": "Italy",
        "region": "Friaul",
        "locality": "Julische Alpen (Belluno / Friaul)",
        "lat": 46.29024228,
        "lon": 13.18181813,
        "begin": "Gemona del Friuli (305 m)",
        "target": "Monte Chiampon",
        "targetheight": 1709,
        "duration": 180,
        "elevationdiff": 1425,
        "difficultynumeric": 1.5
    },
    {
        "link": "sentiero_monte_nebria/1408",
        "name": "Sentiero Monte Nebria",
        "state": "Italy",
        "region": "Friaul",
        "locality": "Julische Alpen (Belluno / Friaul)",
        "lat": 46.50217348,
        "lon": 13.46988201,
        "begin": "Wolfsbach (Valbruna)(807 m)",
        "target": "Monte Nebria",
        "targetheight": 1194,
        "duration": 150,
        "elevationdiff": 400,
        "difficultynumeric": 1.5
    },
    {
        "link": "ziffer_weg/541",
        "name": "Ziffer-Weg",
        "state": "Italy",
        "region": "Friaul",
        "locality": "Julische Alpen (Belluno / Friaul)",
        "lat": 46.50087,
        "lon": 13.42014,
        "begin": "Malborghetto (709 m)",
        "target": "Due Pizzi",
        "targetheight": 2046,
        "duration": 435,
        "elevationdiff": 1354,
        "difficultynumeric": 1.5
    },
    {
        "link": "sentiero_degli_alpini/830",
        "name": "Sentiero degli Alpini",
        "state": "Italy",
        "region": "Ligurien / Riviera",
        "locality": "Ligurische Alpen",
        "lat": 43.99366,
        "lon": 7.67098,
        "begin": "Ventimiglia (5 m)",
        "target": "Gola dell'Incisa",
        "targetheight": 1685,
        "duration": 255,
        "elevationdiff": 700,
        "difficultynumeric": 1.5
    },
    {
        "link": "sentiero_rifugio_remondino_rifugio_bozano/1634",
        "name": "Sentiero Rifugio Remondino - Rifugio Bozano",
        "state": "Italy",
        "region": "Ligurien / Riviera",
        "locality": "Ligurische Alpen",
        "lat": 44.17004,
        "lon": 7.28264,
        "begin": "Terme di Valdieri",
        "target": "Rif. Remondino oder Rif. Bozano",
        "targetheight": 2453,
        "duration": 420,
        "elevationdiff": 1270,
        "difficultynumeric": 1.5
    },
    {
        "link": "sentiero_attrezzato_moregallo/1257",
        "name": "Sentiero attrezzato Moregallo",
        "state": "Italy",
        "region": "Lombardei",
        "locality": "Comer See",
        "lat": 45.86621,
        "lon": 9.33862,
        "begin": "Valmadrera (234 m)",
        "target": "Monte Moregallo",
        "targetheight": 1276,
        "duration": 270,
        "elevationdiff": 1025,
        "difficultynumeric": 1.5
    },
    {
        "link": "sentiero_tosi_monte_carone_/743",
        "name": "Sentiero Tosi (Monte Carone)",
        "state": "Italy",
        "region": "Lombardei",
        "locality": "Gardaseeberge (Lombardei)",
        "lat": 45.84071,
        "lon": 10.77071,
        "begin": "Riva (78 m)",
        "target": "Monte Carone",
        "targetheight": 1621,
        "duration": 390,
        "elevationdiff": 400,
        "difficultynumeric": 1.5
    },
    {
        "link": "rifugio_nacamuli_steig/1604",
        "name": "Rifugio Nacamuli Steig",
        "state": "Italy",
        "region": "Piemont / Aosta",
        "locality": "Aostatal",
        "lat": 45.93589,
        "lon": 7.49677,
        "begin": "Aosta",
        "target": "Rifugio Nacamuli",
        "targetheight": 2828,
        "duration": 360,
        "elevationdiff": 850,
        "difficultynumeric": 1.5
    },
    {
        "link": "sentiero_attrezzato_di_monte_scaletta/1271",
        "name": "Sentiero attrezzato di Monte Scaletta",
        "state": "Italy",
        "region": "Piemont / Aosta",
        "locality": "Cottische Alpen",
        "lat": 44.43393,
        "lon": 6.98117,
        "begin": "Argentera (1684 m)",
        "target": "Monte Scaletta",
        "targetheight": 2840,
        "duration": 330,
        "elevationdiff": 1030,
        "difficultynumeric": 1.5
    },
    {
        "link": "sentiero_del_postino/1635",
        "name": "Sentiero del Postino",
        "state": "Italy",
        "region": "Piemont / Aosta",
        "locality": "Cottische Alpen",
        "lat": 44.70537,
        "lon": 7.08104,
        "begin": "Saluzzo",
        "target": "Rifugio Giacoletti",
        "targetheight": 2741,
        "duration": 240,
        "elevationdiff": 720,
        "difficultynumeric": 1.5
    },
    {
        "link": "sentiero_bove/1631",
        "name": "Sentiero Bove",
        "state": "Italy",
        "region": "Piemont / Aosta",
        "locality": "Tessiner Alpen (Piemont)",
        "lat": 46.00409,
        "lon": 8.56906,
        "begin": "Verbania",
        "target": "Pizzo Marona, Monte Zeda, La Piota, Monte Torrione, Cima Marsicce, Cima della Laurasca (höchster Gipfel), Cima Sasso",
        "targetheight": 2195,
        "duration": 390,
        "elevationdiff": 1050,
        "difficultynumeric": 1.5
    },
    {
        "link": "schoenecksteig_versicherter_steig_/1248",
        "name": "Schönecksteig (versicherter Steig)",
        "state": "Italy",
        "region": "Südtirol-Trentino",
        "locality": "Ortler",
        "lat": 46.54885,
        "lon": 10.6103,
        "begin": "Sulden (1866 m)",
        "target": "Hinteres Schöneck",
        "targetheight": 3143,
        "duration": 330,
        "elevationdiff": 825,
        "difficultynumeric": 1.5
    },
    {
        "link": "grawandsteig/694",
        "name": "Grawandsteig",
        "state": "Italy",
        "region": "Südtirol-Trentino",
        "locality": "Vinschgau Nord",
        "lat": 46.76933,
        "lon": 10.79843,
        "begin": "Kurzras (2004 m) im Schnalstal",
        "target": "Grawand",
        "targetheight": 3251,
        "duration": 30,
        "elevationdiff": 75,
        "difficultynumeric": 1.5
    },
    {
        "link": "sentiero_attrezzato_celeste_donini/771",
        "name": "Sentiero attrezzato Celeste Donini",
        "state": "Italy",
        "region": "Südtirol-Trentino",
        "locality": "Brenta",
        "lat": 46.14843,
        "lon": 10.94308,
        "begin": "Molveno (864m)",
        "target": "Rif. Selvata",
        "targetheight": 1663,
        "duration": 225,
        "elevationdiff": 725,
        "difficultynumeric": 1.5
    },
    {
        "link": "sentiero_attrezzato_passo_bregain/776",
        "name": "Sentiero attrezzato Passo Bregain",
        "state": "Italy",
        "region": "Südtirol-Trentino",
        "locality": "Brenta",
        "lat": 46.10186,
        "lon": 10.89732,
        "begin": "San Lorenzo in Banale (716m)",
        "target": "Passo Bregain",
        "targetheight": 1829,
        "duration": 330,
        "elevationdiff": 1125,
        "difficultynumeric": 1.5
    },
    {
        "link": "sentiero_serafini/25",
        "name": "Sentiero Serafini",
        "state": "Italy",
        "region": "Südtirol-Trentino",
        "locality": "Brenta",
        "lat": 46.21155,
        "lon": 10.8413,
        "begin": "Madonna di Campiglio (1522 m)",
        "target": "Monte Spinale",
        "targetheight": 1650,
        "duration": 135,
        "elevationdiff": 150,
        "difficultynumeric": 1.5
    },
    {
        "link": "tovel_waalweg/777",
        "name": "Tovel-Waalweg",
        "state": "Italy",
        "region": "Südtirol-Trentino",
        "locality": "Brenta",
        "lat": 46.3317,
        "lon": 10.9789,
        "begin": "Tuenno (645 m)",
        "target": "Val di Tovel",
        "targetheight": 750,
        "duration": 300,
        "elevationdiff": 50,
        "difficultynumeric": 1.5
    },
    {
        "link": "scala_santa/1620",
        "name": "Scala Santa",
        "state": "Italy",
        "region": "Südtirol-Trentino",
        "locality": "Gardaseeberge (Trentino)",
        "lat": 45.85528,
        "lon": 10.8204,
        "begin": "Riva del Garda",
        "target": "Nodice",
        "targetheight": 859,
        "duration": 105,
        "elevationdiff": 330,
        "difficultynumeric": 1.5
    },
    {
        "link": "sentiero_attrezzato_baone/753",
        "name": "Sentiero attrezzato Baone",
        "state": "Italy",
        "region": "Südtirol-Trentino",
        "locality": "Gardaseeberge (Trentino)",
        "lat": 45.92426,
        "lon": 10.87263,
        "begin": "Chiarano (85 m)",
        "target": "Monte Baone",
        "targetheight": 480,
        "duration": 75,
        "elevationdiff": 425,
        "difficultynumeric": 1.5
    },
    {
        "link": "sentiero_attrezzato_delle_vipere/740",
        "name": "Sentiero attrezzato delle Vipere",
        "state": "Italy",
        "region": "Südtirol-Trentino",
        "locality": "Gardaseeberge (Trentino)",
        "lat": 45.78537,
        "lon": 10.9055,
        "begin": "Rovereto",
        "target": "Malga di Bes / Corna Piana",
        "targetheight": 1506,
        "duration": 75,
        "elevationdiff": 470,
        "difficultynumeric": 1.5
    },
    {
        "link": "gamssteig_gemsensteig_via_dei_camosci_/1442",
        "name": "Gamssteig (Gemsensteig / Via dei Camosci)",
        "state": "Italy",
        "region": "Südtirol-Trentino",
        "locality": "Mendelkamm",
        "lat": 46.35037,
        "lon": 11.20152,
        "begin": "Kaltern (425 m)",
        "target": "Rhönberg (Monte Roen)",
        "targetheight": 2116,
        "duration": 240,
        "elevationdiff": 650,
        "difficultynumeric": 1.5
    },
    {
        "link": "leiferer_hoehenweg/710",
        "name": "Leiferer Höhenweg",
        "state": "Italy",
        "region": "Südtirol-Trentino",
        "locality": "Mendelkamm",
        "lat": 46.41779,
        "lon": 11.37244,
        "begin": "Leifers (255 m)",
        "target": "Brantental",
        "targetheight": 900,
        "duration": 270,
        "elevationdiff": 675,
        "difficultynumeric": 1.5
    },
    {
        "link": "weisshornsteig_versicherter_weg_/704",
        "name": "Weißhornsteig (versicherter Weg)",
        "state": "Italy",
        "region": "Südtirol-Trentino",
        "locality": "Sarntaler Alpen + Stubaier (Südtirol)",
        "lat": 46.818838,
        "lon": 11.441331,
        "begin": "Sterzing",
        "target": "Sarner Weißhorn / Corno Bianco",
        "targetheight": 2705,
        "duration": 240,
        "elevationdiff": 500,
        "difficultynumeric": 1.5
    },
    {
        "link": "tschierspitzsteig/569",
        "name": "Tschierspitzsteig",
        "state": "Italy",
        "region": "Südtirol-Trentino",
        "locality": "Puez-Geislergruppe",
        "lat": 46.5577,
        "lon": 11.80475,
        "begin": "Wolkenstein",
        "target": "Große Tschierspitze (Große Cirspitze)",
        "targetheight": 2597,
        "duration": 150,
        "elevationdiff": 480,
        "difficultynumeric": 1.5
    },
    {
        "link": "sentiero_attrezzato_camillo_deapoli/1388",
        "name": "Sentiero attrezzato Camillo Deapoli",
        "state": "Italy",
        "region": "Südtirol-Trentino",
        "locality": "Pala (Trentino)",
        "lat": 46.2332,
        "lon": 11.8384,
        "begin": "San Martino di Castrozza (1466m)",
        "target": "Rif. Velo della Madonna",
        "targetheight": 2358,
        "duration": 270,
        "elevationdiff": 1300,
        "difficultynumeric": 1.5
    },
    {
        "link": "seekofelsteig/626",
        "name": "Seekofelsteig",
        "state": "Italy",
        "region": "Südtirol-Trentino",
        "locality": "Pragser Dolomiten",
        "lat": 46.667611,
        "lon": 12.082333,
        "begin": "Pragser Wildsee (1494 m)",
        "target": "Seekofel",
        "targetheight": 2810,
        "duration": 450,
        "elevationdiff": 1350,
        "difficultynumeric": 1.5
    },
    {
        "link": "strudelkopfsteig/1596",
        "name": "Strudelkopfsteig",
        "state": "Italy",
        "region": "Südtirol-Trentino",
        "locality": "Pragser Dolomiten",
        "lat": 46.640324,
        "lon": 12.231981,
        "begin": "Toblach / Schluderbach (Carbonin)",
        "target": "Strudelkopfsattel / Strudelkopf",
        "targetheight": 2307,
        "duration": 300,
        "elevationdiff": 900,
        "difficultynumeric": 1.5
    },
    {
        "link": "passportensteig/1513",
        "name": "Paßportensteig",
        "state": "Italy",
        "region": "Südtirol-Trentino",
        "locality": "Sextener Dolomiten",
        "lat": 46.63042,
        "lon": 12.31514,
        "begin": "Cortina d'Ampezzo (1260m)",
        "target": "Gamsscharte / Paternkofel",
        "targetheight": 2650,
        "duration": 270,
        "elevationdiff": 320,
        "difficultynumeric": 1.5
    },
    {
        "link": "schwabenalpkopf_wildgrabenjochsteig/1702",
        "name": "Schwabenalpkopf / Wildgrabenjochsteig",
        "state": "Italy",
        "region": "Südtirol-Trentino",
        "locality": "Sextener Dolomiten",
        "lat": 46.64715,
        "lon": 12.27853,
        "begin": "Sexten",
        "target": "Gwengalpenjoch (Passo dell\\' Alpe Mattina)",
        "targetheight": 2446,
        "duration": 390,
        "elevationdiff": 950,
        "difficultynumeric": 1.5
    },
    {
        "link": "croda_de_r_ancona/1591",
        "name": "Croda de R´Ancona",
        "state": "Italy",
        "region": "Venetien",
        "locality": "Cristallo + Pomagagnon",
        "lat": 46.616667,
        "lon": 12.169986,
        "begin": "Cortina d´Ampezzo",
        "target": "Croda de R´Ancona",
        "targetheight": 2367,
        "duration": 360,
        "elevationdiff": 950,
        "difficultynumeric": 1.5
    },
    {
        "link": "bojin_kuk_normalweg/1893",
        "name": "Bojin kuk Normalweg",
        "state": "Croatia",
        "region": "Zadar",
        "locality": "Naturpark Velebit",
        "lat": 44.354443,
        "lon": 15.409075,
        "begin": "Starigrad-Paklenica (5m)",
        "target": "Bojin kuk ",
        "targetheight": 1110,
        "duration": 405,
        "elevationdiff": 700,
        "difficultynumeric": 1.5
    },
    {
        "link": "mala_paklenica/1891",
        "name": "Mala Paklenica",
        "state": "Croatia",
        "region": "Zadar",
        "locality": "Naturpark Velebit",
        "lat": 44.273726,
        "lon": 15.483024,
        "begin": "Seline (2m)",
        "target": "Njive Lekine/Wegekreuz P 680m",
        "targetheight": 680,
        "duration": 420,
        "elevationdiff": 700,
        "difficultynumeric": 1.5
    },
    {
        "link": "barranco_del_tranco/1209",
        "name": "Barranco del Tranco",
        "state": "Spain",
        "region": "Aragon",
        "locality": "Zaragoza",
        "lat": 40.2525,
        "lon": -1.2138,
        "begin": "Villel",
        "target": "El Tranco",
        "difficultynumeric": 2
    },
    {
        "link": "ferrata_del_puente/1210",
        "name": "Ferrata del Puente",
        "state": "Spain",
        "region": "Aragon",
        "locality": "Huesca",
        "lat": 42.2705,
        "lon": -0.0809,
        "begin": "Siera de Guara",
        "targetheight": 674,
        "duration": 60,
        "elevationdiff": 30,
        "difficultynumeric": 2
    },
    {
        "link": "la_via_ferrata_du_puy_des_juscles_decouverte/1154",
        "name": "La via ferrata du Puy des Juscles - decouverte",
        "state": "France",
        "region": "Auvergne",
        "locality": "Haute-Loire",
        "lat": 45.09796,
        "lon": 4.04056,
        "begin": "Pertuis",
        "target": "Puy des Juscles",
        "targetheight": 980,
        "duration": 120,
        "elevationdiff": 80,
        "difficultynumeric": 2
    },
    {
        "link": "via_ferrata_du_bez/980",
        "name": "Via ferrata du Bez",
        "state": "France",
        "region": "Provence",
        "locality": "Provence-Alpes",
        "lat": 44.9333,
        "lon": 6.58333,
        "begin": "Briancon (1326 m)",
        "target": "Rocher du Bez",
        "targetheight": 1650,
        "duration": 90,
        "elevationdiff": 200,
        "difficultynumeric": 2
    },
    {
        "link": "via_ferrata_la_traditionelle_verfallen_/1011",
        "name": "Via ferrata ´La Traditionelle´ (verfallen)",
        "state": "France",
        "region": "Provence",
        "locality": "Seealpen",
        "lat": 44.2333,
        "lon": 6.93333,
        "begin": "St-Etienne-de-Tinee (1144 m)",
        "target": "Cime de la Bercha",
        "targetheight": 2274,
        "duration": 210,
        "elevationdiff": 225,
        "difficultynumeric": 2
    },
    {
        "link": "mont_granier_gesicherter_steig/971",
        "name": "Mont Granier - gesicherter Steig",
        "state": "France",
        "region": "Rhone Alpes",
        "locality": "Chartreuse",
        "lat": 45.44390384,
        "lon": 5.90320945,
        "begin": "St-Pierre-d´Entremont (641 m)",
        "target": "Mont Granier",
        "targetheight": 1933,
        "duration": 360,
        "elevationdiff": 825,
        "difficultynumeric": 2
    },
    {
        "link": "croix_de_nivolet_gesicherter_steig_/1812",
        "name": "Croix de Nivolet (gesicherter Steig)",
        "state": "France",
        "region": "Rhone Alpes",
        "locality": "Savoyen / Mont-Blanc",
        "lat": 45.636452,
        "lon": 5.96485,
        "begin": "St-Jean-d´Arvey (531 m)",
        "target": "Croix de Nivolet",
        "targetheight": 1547,
        "duration": 120,
        "elevationdiff": 150,
        "difficultynumeric": 2
    },
    {
        "link": "karlsruher_grat/1877",
        "name": "Karlsruher Grat",
        "state": "Germany",
        "region": "Baden-Württemberg",
        "locality": "Schwarzwald",
        "lat": 48.526008,
        "lon": 8.169253,
        "begin": "Ottenhöfen (327m)",
        "target": "Bosensteiner Eck ",
        "targetheight": 823,
        "duration": 180,
        "elevationdiff": 570,
        "difficultynumeric": 2
    },
    {
        "link": "aggensteinsteig/56",
        "name": "Aggensteinsteig",
        "state": "Germany",
        "region": "Bayern",
        "locality": "Allgäuer Alpen (Bayern)",
        "lat": 47.5650164661293,
        "lon": 10.5746412277222,
        "begin": "Pfronten (882 m)",
        "target": "Aggenstein",
        "targetheight": 1985,
        "duration": 210,
        "elevationdiff": 500,
        "difficultynumeric": 2
    },
    {
        "link": "besler_klettersteig/58",
        "name": "Besler Klettersteig",
        "state": "Germany",
        "region": "Bayern",
        "locality": "Allgäuer Alpen (Bayern)",
        "lat": 47.4268097996715,
        "lon": 10.1853561401367,
        "begin": "Fischen",
        "target": "Besler",
        "targetheight": 1679,
        "duration": 135,
        "elevationdiff": 320,
        "difficultynumeric": 2
    },
    {
        "link": "burgberger_hoernle_steig_kreuzelspitzsteig/1461",
        "name": "Burgberger-Hörnle-Steig / Kreuzelspitzsteig",
        "state": "Germany",
        "region": "Bayern",
        "locality": "Allgäuer Alpen (Bayern)",
        "lat": 47.5471178203318,
        "lon": 10.3022575378418,
        "begin": "Burgberg im Allgäu (751m ü.d.M.)",
        "target": "Burgberger Hörnle / Kreuzelspitz",
        "targetheight": 1496,
        "duration": 210,
        "elevationdiff": 800,
        "difficultynumeric": 2
    },
    {
        "link": "gleitweg/1689",
        "name": "Gleitweg",
        "state": "Germany",
        "region": "Bayern",
        "locality": "Allgäuer Alpen (Bayern)",
        "lat": 47.39451,
        "lon": 10.34794,
        "begin": "Oberstdorf, 814m",
        "target": "Edmund-Probst-Haus",
        "targetheight": 1925,
        "duration": 330,
        "elevationdiff": 1200,
        "difficultynumeric": 2
    },
    {
        "link": "grosser_gund_steig/1567",
        "name": "Grosser-Gund-Steig",
        "state": "Germany",
        "region": "Bayern",
        "locality": "Allgäuer Alpen (Bayern)",
        "lat": 47.4149192056809,
        "lon": 10.3414821624756,
        "begin": "Oberstdorf, 814m",
        "target": "Geißfuß",
        "targetheight": 1980,
        "duration": 240,
        "elevationdiff": 200,
        "difficultynumeric": 2
    },
    {
        "link": "heidenkopf_steig/1755",
        "name": "Heidenkopf-Steig",
        "state": "Germany",
        "region": "Bayern",
        "locality": "Allgäuer Alpen (Bayern)",
        "lat": 47.48073,
        "lon": 10.11023,
        "begin": "Balderschwang",
        "target": "Heidenkopf",
        "targetheight": 1685,
        "duration": 225,
        "difficultynumeric": 2
    },
    {
        "link": "heilbronner_weg/59",
        "name": "Heilbronner Weg",
        "state": "Germany",
        "region": "Bayern",
        "locality": "Allgäuer Alpen (Bayern)",
        "lat": 47.2857503354095,
        "lon": 10.2789115905762,
        "begin": "Oberstdorf (843 m)",
        "target": "Bockkarkopf",
        "targetheight": 2609,
        "duration": 660,
        "elevationdiff": 1700,
        "difficultynumeric": 2
    },
    {
        "link": "hirschbachtobelsteig/2036",
        "name": "Hirschbachtobelsteig",
        "state": "Germany",
        "region": "Bayern",
        "locality": "Allgäuer Alpen (Bayern)",
        "lat": 47.517346,
        "lon": 10.382626,
        "begin": "Bad Hindelang (825 m)",
        "target": "Hirschbachtobel",
        "targetheight": 1456,
        "duration": 240,
        "elevationdiff": 850,
        "difficultynumeric": 2
    },
    {
        "link": "hochgratsteig/1274",
        "name": "Hochgratsteig",
        "state": "Germany",
        "region": "Bayern",
        "locality": "Allgäuer Alpen (Bayern)",
        "lat": 47.5003874668658,
        "lon": 10.0881958007812,
        "begin": "Oberstaufen-Steibis",
        "target": "Hochgrat",
        "targetheight": 1833,
        "duration": 405,
        "elevationdiff": 985,
        "difficultynumeric": 2
    },
    {
        "link": "hohe_gaenge/62",
        "name": "Hohe Gänge",
        "state": "Germany",
        "region": "Bayern",
        "locality": "Allgäuer Alpen (Bayern)",
        "lat": 47.4659905408156,
        "lon": 10.3825092315674,
        "begin": "Bad Hindelang",
        "target": "Hohe Gänge",
        "targetheight": 1946,
        "duration": 405,
        "elevationdiff": 1200,
        "difficultynumeric": 2
    },
    {
        "link": "klettersteig_kreuzspitze/1373",
        "name": "Klettersteig Kreuzspitze",
        "state": "Germany",
        "region": "Bayern",
        "locality": "Allgäuer Alpen (Bayern)",
        "lat": 47.3851591787506,
        "lon": 10.4295444488525,
        "begin": "Hinterstein",
        "target": "Kreuzspitze",
        "targetheight": 2367,
        "duration": 420,
        "elevationdiff": 1325,
        "difficultynumeric": 2
    },
    {
        "link": "laufbachereckweg/1687",
        "name": "Laufbachereckweg",
        "state": "Germany",
        "region": "Bayern",
        "locality": "Allgäuer Alpen (Bayern)",
        "lat": 47.39336,
        "lon": 10.37191,
        "begin": "Oberstdorf, 814m",
        "target": "Laufbachereck",
        "targetheight": 2179,
        "duration": 390,
        "elevationdiff": 350,
        "difficultynumeric": 2
    },
    {
        "link": "nagelfluhkette_ueberschreitung_ost_vom_hochgrat_zum_mittagberg_/1466",
        "name": "Nagelfluhkette-Überschreitung OST (vom Hochgrat zum Mittagberg)",
        "state": "Germany",
        "region": "Bayern",
        "locality": "Allgäuer Alpen (Bayern)",
        "lat": 47.5289088005513,
        "lon": 10.195140838623,
        "begin": "Oberstaufen-Steibis",
        "target": "Hochgrat 1833m, Rindalphorn 1822m, Gündleskopf 1748m, Buralpkopf 1772m, Sedererstuiben 1737m, Stuiben 1749m, Steineberg 1660m",
        "targetheight": 1833,
        "duration": 360,
        "elevationdiff": 1100,
        "difficultynumeric": 2
    },
    {
        "link": "rotspitze_steig/2042",
        "name": "Rotspitze-Steig",
        "state": "Germany",
        "region": "Bayern",
        "locality": "Allgäuer Alpen (Bayern)",
        "lat": 47.461305,
        "lon": 10.368292,
        "begin": "Sonthofen (742 m)",
        "target": "Rotspitze",
        "targetheight": 2033,
        "duration": 360,
        "elevationdiff": 1200,
        "difficultynumeric": 2
    },
    {
        "link": "rubihorn_steig/60",
        "name": "Rubihorn-Steig",
        "state": "Germany",
        "region": "Bayern",
        "locality": "Allgäuer Alpen (Bayern)",
        "lat": 47.422628798032,
        "lon": 10.3142738342285,
        "begin": "Oberstdorf (843 m)",
        "target": "Rubihorn",
        "targetheight": 1957,
        "duration": 225,
        "elevationdiff": 700,
        "difficultynumeric": 2
    },
    {
        "link": "sorgschrofensteig/1482",
        "name": "Sorgschrofensteig",
        "state": "Germany",
        "region": "Bayern",
        "locality": "Allgäuer Alpen (Bayern)",
        "lat": 47.5545763324243,
        "lon": 10.4511308670044,
        "begin": "Unterjoch (1013m)",
        "target": "Zinken / Sorgschrofen",
        "targetheight": 1638,
        "duration": 270,
        "elevationdiff": 700,
        "difficultynumeric": 2
    },
    {
        "link": "steineberg_klettersteig/1473",
        "name": "Steineberg-Klettersteig",
        "state": "Germany",
        "region": "Bayern",
        "locality": "Allgäuer Alpen (Bayern)",
        "lat": 47.5289088005513,
        "lon": 10.195140838623,
        "begin": "Immenstadt (729m ü.d.M.)",
        "target": "Steineberg",
        "targetheight": 1660,
        "duration": 330,
        "elevationdiff": 1100,
        "difficultynumeric": 2
    },
    {
        "link": "branderschrofensteig/73",
        "name": "Branderschrofensteig",
        "state": "Germany",
        "region": "Bayern",
        "locality": "Ammergauer Alpen",
        "lat": 47.55904,
        "lon": 10.77862,
        "begin": "Hohenschwangau (810 m)",
        "target": "Branderschrofen",
        "targetheight": 1880,
        "duration": 45,
        "elevationdiff": 200,
        "difficultynumeric": 2
    },
    {
        "link": "ettaler_manndl_steig/76",
        "name": "Ettaler-Manndl-Steig",
        "state": "Germany",
        "region": "Bayern",
        "locality": "Ammergauer Alpen",
        "lat": 47.5844214764831,
        "lon": 11.1164581775665,
        "begin": "Ettal (880 m)",
        "target": "Ettaler Manndl",
        "targetheight": 1633,
        "duration": 210,
        "elevationdiff": 750,
        "difficultynumeric": 2
    },
    {
        "link": "fensterlsteig/2048",
        "name": "Fensterlsteig",
        "state": "Germany",
        "region": "Bayern",
        "locality": "Ammergauer Alpen",
        "lat": 47.566446,
        "lon": 10.857228,
        "begin": "Halblech (821 m)",
        "target": "Fensterl",
        "targetheight": 1916,
        "difficultynumeric": 2
    },
    {
        "link": "gelbe_wand_klettersteig/72",
        "name": "Gelbe Wand Klettersteig",
        "state": "Germany",
        "region": "Bayern",
        "locality": "Ammergauer Alpen",
        "lat": 47.55941,
        "lon": 10.77857,
        "begin": "Hohenschwangau (810 m)",
        "target": "Tegelberghaus",
        "targetheight": 1707,
        "duration": 105,
        "elevationdiff": 925,
        "difficultynumeric": 2
    },
    {
        "link": "hochplattensteig/77",
        "name": "Hochplattensteig",
        "state": "Germany",
        "region": "Bayern",
        "locality": "Ammergauer Alpen",
        "lat": 47.5522,
        "lon": 10.84203,
        "begin": "Linderhof",
        "target": "Hochplatte",
        "targetheight": 2082,
        "duration": 240,
        "elevationdiff": 1025,
        "difficultynumeric": 2
    },
    {
        "link": "kofelsteig/75",
        "name": "Kofelsteig",
        "state": "Germany",
        "region": "Bayern",
        "locality": "Ammergauer Alpen",
        "lat": 47.5879745430273,
        "lon": 11.0579752922058,
        "begin": "Oberammergau (837 m)",
        "target": "Kofel",
        "targetheight": 1372,
        "duration": 120,
        "elevationdiff": 575,
        "difficultynumeric": 2
    },
    {
        "link": "saeulingsteig/74",
        "name": "Säulingsteig",
        "state": "Germany",
        "region": "Bayern",
        "locality": "Ammergauer Alpen",
        "lat": 47.53972,
        "lon": 10.75395,
        "begin": "Hohenschwangau (810 m)",
        "target": "Säuling",
        "targetheight": 2048,
        "duration": 240,
        "elevationdiff": 1250,
        "difficultynumeric": 2
    },
    {
        "link": "scheinbergspitzsteig/2051",
        "name": "Scheinbergspitzsteig",
        "state": "Germany",
        "region": "Bayern",
        "locality": "Ammergauer Alpen",
        "lat": 47.554676,
        "lon": 10.887569,
        "begin": "Graswang (ca. 900m)",
        "target": "Scheinbergspitze",
        "targetheight": 1926,
        "duration": 240,
        "elevationdiff": 880,
        "difficultynumeric": 2
    },
    {
        "link": "sonnenberggrat_steig/1750",
        "name": "Sonnenberggrat-Steig",
        "state": "Germany",
        "region": "Bayern",
        "locality": "Ammergauer Alpen",
        "lat": 47.58251,
        "lon": 10.994,
        "begin": "Unterammergau",
        "target": "Sonnenberg",
        "targetheight": 1622,
        "duration": 330,
        "elevationdiff": 765,
        "difficultynumeric": 2
    },
    {
        "link": "oberlandsteig_rot/14",
        "name": "Oberlandsteig-rot",
        "state": "Germany",
        "region": "Bayern",
        "locality": "Altmühltal",
        "lat": 48.827632,
        "lon": 11.079276,
        "begin": "Konstein (406 m)",
        "target": "Römerberg",
        "targetheight": 494,
        "duration": 105,
        "elevationdiff": 200,
        "difficultynumeric": 2
    },
    {
        "link": "hermann_von_barth_weg/84",
        "name": "Hermann-von-Barth-Weg",
        "state": "Germany",
        "region": "Bayern",
        "locality": "Wetterstein (Bayern)",
        "lat": 47.4232095125622,
        "lon": 11.1233139038086,
        "begin": "Seefeld",
        "target": "Partenkirchener Dreitorspitze",
        "targetheight": 2633,
        "duration": 615,
        "elevationdiff": 1625,
        "difficultynumeric": 2
    },
    {
        "link": "laengenfeld_er_steig/1502",
        "name": "Längenfeld(er)-Steig",
        "state": "Germany",
        "region": "Bayern",
        "locality": "Wetterstein (Bayern)",
        "lat": 47.4340096351775,
        "lon": 11.0500144958496,
        "begin": "Garmisch-Partenkirchen",
        "target": "Osterfelderkopf",
        "targetheight": 2050,
        "duration": 750,
        "elevationdiff": 400,
        "difficultynumeric": 2
    },
    {
        "link": "obere_wettersteinspitze_versicherter_steig_/1650",
        "name": "Obere Wettersteinspitze (versicherter Steig)",
        "state": "Germany",
        "region": "Bayern",
        "locality": "Wetterstein (Bayern)",
        "lat": 47.43503,
        "lon": 11.19939,
        "begin": "Mittenwald 912m",
        "target": "Obere Wettersteinspitze",
        "targetheight": 2298,
        "duration": 420,
        "elevationdiff": 1378,
        "difficultynumeric": 2
    },
    {
        "link": "heinrich_noe_steig/107",
        "name": "Heinrich-Noe-Steig",
        "state": "Germany",
        "region": "Bayern",
        "locality": "Karwendel (Bayern)",
        "lat": 47.41371,
        "lon": 11.27873,
        "begin": "Mittenwald (912 m)",
        "target": "Gatterl",
        "targetheight": 2266,
        "duration": 210,
        "elevationdiff": 1325,
        "difficultynumeric": 2
    },