[
    {
        "name": "Via Ferrata Balma Negra",
        "state": "France",
        "region": "Provence ",
        "locality": "Seealpen ",
        "lat": 44.095476,
        "lon": 7.049103,
        "begin": "Roubion",
        "targetheight": 1480,
        "difficultynum": 6.5,
        "difficultystr": "F",
        "link": "http://klettersteig.de/klettersteig/via_ferrata_balma_negra/2067"
    },
    {
        "name": "Sentiero per Bivacco Bafile",
        "state": "Italy",
        "region": "Mittelitalien ",
        "locality": "Gran Sasso ",
        "lat": 42.442949,
        "lon": 13.558638,
        "begin": "Assergi (886 m)",
        "targetheight": 2669,
        "duration": 240,
        "difficultynum": 6,
        "difficultystr": "E/F",
        "link": "http://klettersteig.de/klettersteig/sentiero_per_bivacco_bafile/1989"
    },
    {
        "name": "Geiler Hengst",
        "state": "Austria",
        "region": "Oberösterreich ",
        "locality": "Oberösterreichische Voralpen ",
        "lat": 47.686,
        "lon": 14.491,
        "begin": "Windischgarsten (601 m)",
        "targetheight": 1394,
        "difficultynum": 6,
        "difficultystr": "E/F",
        "link": "http://klettersteig.de/klettersteig/geiler_hengst/1963"
    },
    {
        "name": "Via Ferrata de Rochefort",
        "state": "France",
        "region": "Languedoc-Roussillon ",
        "locality": "Lozere ",
        "lat": 44.32777,
        "lon": 3.56655,
        "begin": "Florac",
        "targetheight": 1020,
        "duration": 240,
        "difficultynum": 6,
        "difficultystr": "E/F",
        "link": "http://klettersteig.de/klettersteig/via_ferrata_de_rochefort/1964"
    },
    {
        "name": "Kristall Klettersteig",
        "state": "Austria",
        "region": "Salzburg ",
        "locality": "Glocknergruppe ",
        "lat": 47.129723,
        "lon": 12.615762,
        "begin": "Uttendorf (774 m)",
        "targetheight": 2400,
        "duration": 210,
        "difficultynum": 6,
        "difficultystr": "E/F",
        "link": "http://klettersteig.de/klettersteig/kristall_klettersteig/423"
    },
    {
        "name": "Wilde Gams-Klettersteig",
        "state": "Austria",
        "region": "Salzburg ",
        "locality": "Steinernes Meer ",
        "lat": 47.512106,
        "lon": 12.761528,
        "begin": "Weißbach bei Lofer (667 m)",
        "targetheight": 830,
        "duration": 100,
        "difficultynum": 6,
        "difficultystr": "E/F",
        "link": "http://klettersteig.de/klettersteig/wilde_gams_klettersteig/1850"
    },
    {
        "name": "Sportklettersteig Alpin live Brand Lünersee",
        "state": "Austria",
        "region": "Vorarlberg ",
        "locality": "Rätikon (Vorarlberg / LI) ",
        "lat": 47.0734,
        "lon": 9.74158,
        "begin": "Brand (1037 m)",
        "targetheight": 1690,
        "duration": 90,
        "difficultynum": 6,
        "difficultystr": "E/F",
        "link": "http://klettersteig.de/klettersteig/sportklettersteig_alpin_live_brand_luenersee/38"
    },
    {
        "name": "Karola-Steig",
        "state": "Germany",
        "region": "Baden-Württemberg ",
        "locality": "Rheintal/Neckartal (BaWü) ",
        "lat": 49.55566,
        "lon": 8.683,
        "begin": "Weinheim",
        "targetheight": 230,
        "duration": 45,
        "difficultynum": 6,
        "difficultystr": "E/F",
        "link": "http://klettersteig.de/klettersteig/karola_steig/1769"
    },
    {
        "name": "Seewand Klettersteig (Leadership)",
        "state": "Austria",
        "region": "Steiermark ",
        "locality": "Dachstein ",
        "lat": 47.53962,
        "lon": 13.66133,
        "begin": "Hallstatt, Winkl, Bad Goissern",
        "targetheight": 1788,
        "duration": 390,
        "difficultynum": 5.5,
        "difficultystr": "E",
        "link": "http://klettersteig.de/klettersteig/seewand_klettersteig_leadership_/349"
    },
    {
        "name": "Via ferrata de la Toviere (L´Integrale)",
        "state": "France",
        "region": "Rhone Alpes ",
        "locality": "Savoyen / Mont-Blanc ",
        "lat": 45.46269,
        "lon": 6.96276,
        "begin": "Val d´Isere (1840 m)",
        "targetheight": 2347,
        "duration": 330,
        "difficultynum": 5.5,
        "difficultystr": "E",
        "link": "http://klettersteig.de/klettersteig/via_ferrata_les_plates_de_la_daille/947"
    },
    {
        "name": "Via attrezzata Rino Pisetta",
        "state": "Italy",
        "region": "Südtirol-Trentino ",
        "locality": "Gardaseeberge (Trentino) ",
        "lat": 46.05255,
        "lon": 10.95138,
        "begin": "Sarche (259m)",
        "targetheight": 971,
        "duration": 300,
        "difficultynum": 5.5,
        "difficultystr": "E",
        "link": "http://klettersteig.de/klettersteig/via_attrezzata_rino_pisetta/760"
    },
    {
        "name": "Kaiser Max Klettersteig",
        "state": "Austria",
        "region": "Tirol ",
        "locality": "Karwendel (Tirol) ",
        "lat": 47.2698531782468,
        "lon": 11.2694835662842,
        "begin": "Zirl (622 m)",
        "targetheight": 1025,
        "duration": 270,
        "difficultynum": 5.5,
        "difficultystr": "E",
        "link": "http://klettersteig.de/klettersteig/kaiser_max_klettersteig/114"
    },
    {
        "name": "Winkelturm-Klettersteig Nordwand",
        "state": "Austria",
        "region": "Kärnten ",
        "locality": "Karnische Alpen (Kärnten) ",
        "lat": 46.557038,
        "lon": 13.242755,
        "begin": "Tröpolach (601 m)",
        "targetheight": 2080,
        "duration": 240,
        "difficultynum": 5.5,
        "difficultystr": "E",
        "link": "http://klettersteig.de/klettersteig/winkelturm_klettersteig_nordwand/1546"
    },
    {
        "name": "Via attrezzata Giulio Segata (Segatta)",
        "state": "Italy",
        "region": "Südtirol-Trentino ",
        "locality": "Gardaseeberge (Trentino) ",
        "lat": 45.9899,
        "lon": 11.03916,
        "begin": "Trient (192 m)",
        "targetheight": 2140,
        "duration": 240,
        "difficultynum": 5.5,
        "difficultystr": "E",
        "link": "http://klettersteig.de/klettersteig/via_attrezzata_giulio_segata_segatta_/737"
    },
    {
        "name": "Canal del Mejillon",
        "state": "Spain",
        "region": "Katalonien ",
        "locality": "Serra del Cadi ",
        "lat": 41.609952,
        "lon": 1.814875,
        "begin": "Monistrol de Montserrat (161m)",
        "targetheight": 1237,
        "duration": 240,
        "difficultynum": 5.5,
        "difficultystr": "E",
        "link": "http://klettersteig.de/klettersteig/canal_del_mejillon/1173"
    },
    {
        "name": "Seeben Klettersteig",
        "state": "Austria",
        "region": "Tirol ",
        "locality": "Mieminger Kette + Wetterstein (Tirol) ",
        "lat": 47.37593,
        "lon": 10.94143,
        "begin": "Ehrwald (994 m)",
        "targetheight": 1575,
        "duration": 225,
        "difficultynum": 5.5,
        "difficultystr": "E",
        "link": "http://klettersteig.de/klettersteig/seeben_klettersteig/94"
    },
    {
        "name": "Via ferrata de la Cascade de l´Oule (Le Grand Diedre)",
        "state": "France",
        "region": "Rhone Alpes ",
        "locality": "Chartreuse ",
        "lat": 45.2904,
        "lon": 5.87245,
        "begin": "Crolles (612 m)",
        "targetheight": 930,
        "duration": 210,
        "difficultynum": 5.5,
        "difficultystr": "E",
        "link": "http://klettersteig.de/klettersteig/via_ferrata_de_la_cascade_de_l_oule_le_grand_diedre_/1342"
    },
    {
        "name": "Nasenwand Klettersteig Ginzling",
        "state": "Austria",
        "region": "Tirol ",
        "locality": "Zillertaler Alpen (Tirol) ",
        "lat": 47.1014177035785,
        "lon": 11.8126201629639,
        "begin": "Ginzling (985 m)",
        "targetheight": 1360,
        "duration": 200,
        "difficultynum": 5.5,
        "difficultystr": "E",
        "link": "http://klettersteig.de/klettersteig/nasenwand_klettersteig_ginzling/278"
    },
    {
        "name": "Fallbach Klettersteig",
        "state": "Austria",
        "region": "Kärnten ",
        "locality": "Ankogelgruppe/Nockberge ",
        "lat": 46.983646,
        "lon": 13.470379,
        "begin": "Koschach (840 m)",
        "targetheight": 1100,
        "duration": 165,
        "difficultynum": 5.5,
        "difficultystr": "E",
        "link": "http://klettersteig.de/klettersteig/fallbach_klettersteig/1091"
    },
    {
        "name": "Ferrata delle Guide di Gressoney la trinite",
        "state": "Italy",
        "region": "Piemont / Aosta ",
        "locality": "Aostatal ",
        "lat": 45.82795,
        "lon": 7.82101,
        "begin": "Gressonney la Trinite (1638m)",
        "targetheight": 2030,
        "duration": 165,
        "difficultynum": 5.5,
        "difficultystr": "E",
        "link": "http://klettersteig.de/klettersteig/ferrata_delle_guide_di_gressoney_la_trinite/826"
    },
    {
        "name": "Fernau Express Klettersteig",
        "state": "Austria",
        "region": "Tirol ",
        "locality": "Stubaier Alpen (Tirol) ",
        "lat": 46.99999,
        "lon": 11.13809,
        "begin": "Mutterbergalm (1725 m)",
        "targetheight": 2631,
        "duration": 150,
        "difficultynum": 5.5,
        "difficultystr": "E",
        "link": "http://klettersteig.de/klettersteig/fernau_express_klettersteig/1665"
    },
    {
        "name": "Dopamin Klettersteig",
        "state": "Austria",
        "region": "Tirol ",
        "locality": "Lienzer Dolomiten ",
        "lat": 46.801,
        "lon": 12.742,
        "begin": "Leisach-Gries (710 m), bei Lienz",
        "targetheight": 860,
        "duration": 90,
        "difficultynum": 5.5,
        "difficultystr": "E",
        "link": "http://klettersteig.de/klettersteig/dopamin_klettersteig/1875"
    },
    {
        "name": "Extrem Klettersteig",
        "state": "Austria",
        "region": "Kärnten ",
        "locality": "Gailtaler Alpen ",
        "lat": 46.629227,
        "lon": 13.669386,
        "begin": "Bad Bleiberg (892 m)",
        "targetheight": 1170,
        "duration": 75,
        "difficultynum": 5.5,
        "difficultystr": "E",
        "link": "http://klettersteig.de/klettersteig/extrem_klettersteig/1361"
    },
    {
        "name": "La via ferrata des grosses pierres",
        "state": "France",
        "region": "Rhone Alpes ",
        "locality": "Savoyen / Mont-Blanc ",
        "lat": 45.45934,
        "lon": 6.72149,
        "begin": "Champagny-en-Vanoise",
        "targetheight": 1370,
        "duration": 60,
        "difficultynum": 5.5,
        "difficultystr": "E",
        "link": "http://klettersteig.de/klettersteig/la_via_ferrata_des_grosses_pierres/1163"
    },
    {
        "name": "Sachsenstiege",
        "state": "Germany",
        "region": "Sachsen ",
        "locality": "Dresden ",
        "lat": 51.0231967687878,
        "lon": 13.6885464191437,
        "begin": "Dresden / Plauenscher Grund (Naußlitz)",
        "targetheight": 113,
        "duration": 30,
        "difficultynum": 5.5,
        "difficultystr": "E",
        "link": "http://klettersteig.de/klettersteig/sachsenstiege/1104"
    },
    {
        "name": "Klettersteig Beisteinmauer",
        "state": "Austria",
        "region": "Oberösterreich ",
        "locality": "Oberösterreichische Voralpen ",
        "lat": 47.92,
        "lon": 14.35,
        "begin": "Trattenbach",
        "targetheight": 632,
        "difficultynum": 5,
        "difficultystr": "D/E",
        "link": "http://klettersteig.de/klettersteig/klettersteig_beisteinmauer/2003"
    },
    {
        "name": "Südanstieg auf die Ehrwalder Sonnenspitze",
        "state": "Austria",
        "region": "Tirol ",
        "locality": "Mieminger Kette + Wetterstein (Tirol) ",
        "lat": 47.36825,
        "lon": 10.92181,
        "begin": "Ehrwald (994 m)",
        "targetheight": 2417,
        "duration": 540,
        "difficultynum": 5,
        "difficultystr": "D/E",
        "link": "http://klettersteig.de/klettersteig/suedanstieg_auf_die_ehrwalder_sonnenspitze/97"
    },
    {
        "name": "Leukerbadner Klettersteig 2",
        "state": "Swiss",
        "region": "Wallis ",
        "locality": "Berner Alpen Süd ",
        "lat": 46.3859877472289,
        "lon": 7.60906219482422,
        "begin": "Leukerbad (1401 m)",
        "targetheight": 2942,
        "duration": 480,
        "difficultynum": 5,
        "difficultystr": "D/E",
        "link": "http://klettersteig.de/klettersteig/leukerbadner_klettersteig_2/888"
    },
    {
        "name": "Tajakante Klettersteig",
        "state": "Austria",
        "region": "Tirol ",
        "locality": "Mieminger Kette + Wetterstein (Tirol) ",
        "lat": 47.36503,
        "lon": 10.94819,
        "begin": "Ehrwald (994 m)",
        "targetheight": 2450,
        "duration": 420,
        "difficultynum": 5,
        "difficultystr": "D/E",
        "link": "http://klettersteig.de/klettersteig/tajakante_klettersteig/95"
    },
    {
        "name": "Sentiero del Zuc dal Bor",
        "state": "Italy",
        "region": "Friaul ",
        "locality": "Karnische Alpen (Belluno / Friaul) ",
        "lat": 46.447771,
        "lon": 13.20954,
        "begin": "Moggio Udinese (337 m)",
        "targetheight": 2195,
        "duration": 405,
        "difficultynum": 5,
        "difficultystr": "D/E",
        "link": "http://klettersteig.de/klettersteig/sentiero_del_zuc_dal_bor/1298"
    },
    {
        "name": "Rossloch-Höhlen-Klettersteig",
        "state": "Austria",
        "region": "Steiermark ",
        "locality": "Hochschwab ",
        "lat": 47.573651,
        "lon": 14.852532,
        "begin": "Leopoldsteiner See (628 m)",
        "targetheight": 1649,
        "duration": 380,
        "difficultynum": 5,
        "difficultystr": "D/E",
        "link": "http://klettersteig.de/klettersteig/rossloch_hoehlen_klettersteig/1552"
    },
    {
        "name": "Lärchenturm-Klettersteig",
        "state": "Austria",
        "region": "Kärnten ",
        "locality": "Karawanken (Kärnten) ",
        "lat": 46.44498,
        "lon": 14.38918,
        "begin": "Zell-Pfarre (948 m)",
        "targetheight": 2100,
        "duration": 360,
        "difficultynum": 5,
        "difficultystr": "D/E",
        "link": "http://klettersteig.de/klettersteig/laerchenturm_klettersteig/1527"
    },
    {
        "name": "Weg ohne Grenzen (Ferrata senza confine)",
        "state": "Austria",
        "region": "Kärnten ",
        "locality": "Karnische Alpen (Kärnten) ",
        "lat": 46.603666,
        "lon": 12.945143,
        "begin": "Kötschach-Mauthen (705 m)",
        "targetheight": 2241,
        "duration": 330,
        "difficultynum": 5,
        "difficultystr": "D/E",
        "link": "http://klettersteig.de/klettersteig/weg_ohne_grenzen_ferrata_senza_confine_/453"
    },
    {
        "name": "Johann Klettersteig",
        "state": "Austria",
        "region": "Steiermark ",
        "locality": "Dachstein ",
        "lat": 47.4701100780233,
        "lon": 13.6105155944824,
        "begin": "Ramsau (1135 m)",
        "targetheight": 2741,
        "duration": 330,
        "difficultynum": 5,
        "difficultystr": "D/E",
        "link": "http://klettersteig.de/klettersteig/johann_klettersteig/355"
    },
    {
        "name": "Imster Klettersteig",
        "state": "Austria",
        "region": "Tirol ",
        "locality": "Lechtaler Alpen ",
        "lat": 47.25452,
        "lon": 10.66992,
        "begin": "Hochimst (1050 m)",
        "targetheight": 2632,
        "duration": 330,
        "difficultynum": 5,
        "difficultystr": "D/E",
        "link": "http://klettersteig.de/klettersteig/imster_klettersteig/48"
    },
    {
        "name": "Saulakopf-Klettersteig",
        "state": "Austria",
        "region": "Vorarlberg ",
        "locality": "Rätikon (Vorarlberg / LI) ",
        "lat": 47.078667,
        "lon": 9.77145,
        "begin": "Brand (1037 m)",
        "targetheight": 2516,
        "duration": 330,
        "difficultynum": 5,
        "difficultystr": "D/E",
        "link": "http://klettersteig.de/klettersteig/saulakopf_klettersteig/1575"
    },
    {
        "name": "Via ferrata du Baus de la Frema",
        "state": "France",
        "region": "Provence ",
        "locality": "Seealpen ",
        "lat": 44.0772,
        "lon": 7.21725,
        "begin": "St-Martin-Vesubie",
        "targetheight": 2246,
        "duration": 330,
        "difficultynum": 5,
        "difficultystr": "D/E",
        "link": "http://klettersteig.de/klettersteig/via_ferrata_du_baus_de_la_frema/1010"
    },
    {
        "name": "Königschusswand Klettersteig",
        "state": "Austria",
        "region": "Niederösterreich ",
        "locality": "Rax (West, NÖ) ",
        "lat": 47.6991336660434,
        "lon": 15.7332801818848,
        "begin": "Prein (680 m)",
        "targetheight": 1783,
        "duration": 315,
        "difficultynum": 5,
        "difficultystr": "D/E",
        "link": "http://klettersteig.de/klettersteig/koenigschusswand_klettersteig/313"
    },
    {
        "name": "Küthai Panorama Klettersteig",
        "state": "Austria",
        "region": "Tirol ",
        "locality": "Stubaier Alpen (Tirol) ",
        "lat": 47.19779,
        "lon": 11.04242,
        "begin": "Kühtai (2017 m)",
        "targetheight": 2807,
        "duration": 300,
        "difficultynum": 5,
        "difficultystr": "D/E",
        "link": "http://klettersteig.de/klettersteig/kuethai_panorama_klettersteig/1445"
    },
    {
        "name": "Via ferrata de la Tour du Jalouvre (Jallouvre)",
        "state": "France",
        "region": "Rhone Alpes ",
        "locality": "Savoyen / Mont-Blanc ",
        "lat": 45.95,
        "lon": 6.43333,
        "begin": "St.-Jean-de-Sixt (950 m)",
        "targetheight": 1988,
        "duration": 300,
        "difficultynum": 5,
        "difficultystr": "D/E",
        "link": "http://klettersteig.de/klettersteig/via_ferrata_de_la_tour_du_jalouvre_jallouvre_/911"
    },
    {
        "name": "Via ferrata die Funs di Entracque",
        "state": "Italy",
        "region": "Ligurien / Riviera ",
        "locality": "Ligurische Alpen ",
        "lat": 44.24418,
        "lon": 7.42807,
        "begin": "Entracque (904 m)",
        "targetheight": 1605,
        "duration": 300,
        "difficultynum": 5,
        "difficultystr": "D/E",
        "link": "http://klettersteig.de/klettersteig/via_ferrata_die_funs_di_entracque/1356"
    },
    {
        "name": "Via Ferrata Cesco Tomaselli",
        "state": "Italy",
        "region": "Südtirol-Trentino ",
        "locality": "Fanes ",
        "lat": 46.54368,
        "lon": 12.01743,
        "begin": "St. Kassian im Hochabteital (1536 m)",
        "targetheight": 2980,
        "duration": 300,
        "difficultynum": 5,
        "difficultystr": "D/E",
        "link": "http://klettersteig.de/klettersteig/via_ferrata_cesco_tomaselli/632"
    },
    {
        "name": "Ferrata GAMMA al Dente del Resegone",
        "state": "Italy",
        "region": "Lombardei ",
        "locality": "Comer See ",
        "lat": 45.85846,
        "lon": 9.46063,
        "begin": "Lecco (214 m)",
        "targetheight": 1809,
        "duration": 285,
        "difficultynum": 5,
        "difficultystr": "D/E",
        "link": "http://klettersteig.de/klettersteig/ferrata_gamma_al_dente_del_resegone/814"
    },
    {
        "name": "Höllrachen (Höllenrachen) Klettersteig",
        "state": "Austria",
        "region": "Tirol ",
        "locality": "Stubaier Alpen (Tirol) ",
        "lat": 47.083758,
        "lon": 11.165697,
        "begin": "Milders (1026 m)",
        "targetheight": 2149,
        "duration": 270,
        "difficultynum": 5,
        "difficultystr": "D/E",
        "link": "http://klettersteig.de/klettersteig/hoellrachen_hoellenrachen_klettersteig/176"
    },
    {
        "name": "Mauerläufersteig",
        "state": "Germany",
        "region": "Bayern ",
        "locality": "Wetterstein (Bayern) ",
        "lat": 47.47127,
        "lon": 11.061687,
        "begin": "Garmisch-Partenkirchen (720m)",
        "targetheight": 2143,
        "duration": 270,
        "difficultynum": 5,
        "difficultystr": "D/E",
        "link": "http://klettersteig.de/klettersteig/mauerlaeufersteig/1723"
    },
    {
        "name": "Via ferrata Jules Carret (Grotte a Carret)",
        "state": "France",
        "region": "Rhone Alpes ",
        "locality": "Savoyen / Mont-Blanc ",
        "lat": 45.636452,
        "lon": 5.96485,
        "begin": "St-Jean-d´Arvey (531 m)",
        "targetheight": 1547,
        "duration": 255,
        "difficultynum": 5,
        "difficultystr": "D/E",
        "link": "http://klettersteig.de/klettersteig/via_ferrata_jules_carret_grotte_a_carret_/1813"
    },
    {
        "name": "Via ferrata de la Crete de Combe la Roche",
        "state": "France",
        "region": "Provence ",
        "locality": "Provence-Alpes ",
        "lat": 44.7667,
        "lon": 6.73333,
        "begin": "Arvieux (1453 m)",
        "targetheight": 2261,
        "duration": 240,
        "difficultynum": 5,
        "difficultystr": "D/E",
        "link": "http://klettersteig.de/klettersteig/via_ferrata_de_la_crete_de_combe_la_roche/1071"
    },
    {
        "name": "Via ferrata des Bettieres",
        "state": "France",
        "region": "Rhone Alpes ",
        "locality": "Savoyen / Mont-Blanc ",
        "lat": 45.51855,
        "lon": 6.802384,
        "begin": "Landry (778 m)",
        "targetheight": 1965,
        "duration": 240,
        "difficultynum": 5,
        "difficultystr": "D/E",
        "link": "http://klettersteig.de/klettersteig/via_ferrata_des_bettieres/946"
    },
    {
        "name": "Via ferrata Saix de Miolene",
        "state": "France",
        "region": "Rhone Alpes ",
        "locality": "Savoyen / Mont-Blanc ",
        "lat": 46.2833,
        "lon": 6.73333,
        "begin": "La Chappelle-d`Abondance (1021 m)",
        "targetheight": 1250,
        "duration": 240,
        "difficultynum": 5,
        "difficultystr": "D/E",
        "link": "http://klettersteig.de/klettersteig/via_ferrata_saix_de_miolene/915"
    },
    {
        "name": "La Descente aux Enfers",
        "state": "France",
        "region": "Rhone Alpes ",
        "locality": "Maurienne ",
        "lat": 45.20827,
        "lon": 6.73599,
        "begin": "Aussois (1500 m)",
        "targetheight": 1354,
        "duration": 240,
        "difficultynum": 5,
        "difficultystr": "D/E",
        "link": "http://klettersteig.de/klettersteig/la_descente_aux_enfers/960"
    },
    {
        "name": "La Montee au Purgatoire",
        "state": "France",
        "region": "Rhone Alpes ",
        "locality": "Maurienne ",
        "lat": 45.20827,
        "lon": 6.73599,
        "begin": "Aussois (1500 m)",
        "targetheight": 1354,
        "duration": 240,
        "difficultynum": 5,
        "difficultystr": "D/E",
        "link": "http://klettersteig.de/klettersteig/la_descente_aux_enfers/960"
    },
    {
        "name": "Ferrata Simone Contessi Torrione Discordia",
        "state": "Italy",
        "region": "Lombardei ",
        "locality": "Comer See ",
        "lat": 45.88416,
        "lon": 9.442735,
        "begin": "Ballabio (661 m)",
        "targetheight": 1308,
        "duration": 240,
        "difficultynum": 5,
        "difficultystr": "D/E",
        "link": "http://klettersteig.de/klettersteig/ferrata_simone_contessi_torrione_discordia/1898"
    },
    {
        "name": "Irg Klettersteig",
        "state": "Austria",
        "region": "Steiermark ",
        "locality": "Dachstein ",
        "lat": 47.4662806596379,
        "lon": 13.6481094360352,
        "begin": "Ramsau (1135 m)",
        "targetheight": 2865,
        "duration": 230,
        "difficultynum": 5,
        "difficultystr": "D/E",
        "link": "http://klettersteig.de/klettersteig/irg_klettersteig/1123"
    },
    {
        "name": "Steinbocksteig",
        "state": "Austria",
        "region": "Tirol ",
        "locality": "Ötztaler Alpen (Tirol) ",
        "lat": 46.938135,
        "lon": 10.896184,
        "begin": "St. Leonhard im Pitztal (1365 m)",
        "targetheight": 2300,
        "duration": 225,
        "difficultynum": 5,
        "difficultystr": "D/E",
        "link": "http://klettersteig.de/klettersteig/steinbocksteig/1731"
    },
    {
        "name": "Via ferrata de la Grande Fistoire",
        "state": "France",
        "region": "Provence ",
        "locality": "Provence-Alpes ",
        "lat": 44.376339,
        "lon": 6.07075,
        "begin": "La Motte-du-Caire (709 m)",
        "targetheight": 1110,
        "duration": 210,
        "difficultynum": 5,
        "difficultystr": "D/E",
        "link": "http://klettersteig.de/klettersteig/via_ferrata_de_la_grande_fistoire/1004"
    },
    {
        "name": "Via ferrata ´La Traditionelle´ Pilier a Strates (Section 5)",
        "state": "France",
        "region": "Provence ",
        "locality": "Seealpen ",
        "lat": 44.2333,
        "lon": 6.93333,
        "begin": "St-Etienne-de-Tinee (1144 m)",
        "targetheight": 2274,
        "duration": 210,
        "difficultynum": 5,
        "difficultystr": "D/E",
        "link": "http://klettersteig.de/klettersteig/via_ferrata_la_traditionelle_pilier_a_strates_section_5_/1351"
    },
    {
        "name": "Via ferrata Rocca Senghi",
        "state": "Italy",
        "region": "Piemont / Aosta ",
        "locality": "Cottische Alpen ",
        "lat": 44.57987,
        "lon": 6.96094,
        "begin": "Sant´ Anna di Bellino (1850 m)",
        "targetheight": 2455,
        "duration": 210,
        "difficultynum": 5,
        "difficultystr": "D/E",
        "link": "http://klettersteig.de/klettersteig/via_ferrata_rocca_senghi/1336"
    },
    {
        "name": "Les Vigneaux, Voie 2 (des Balmes) sportif",
        "state": "France",
        "region": "Provence ",
        "locality": "Provence-Alpes ",
        "lat": 44.8167,
        "lon": 6.53333,
        "begin": "Briancon / L'Argentière-la-Bessée (979 m)",
        "targetheight": 1500,
        "duration": 200,
        "difficultynum": 5,
        "difficultystr": "D/E",
        "link": "http://klettersteig.de/klettersteig/les_vigneaux_voie_2_des_balmes_sportif/989"
    },
    {
        "name": "Via ferrata les Plates de la Daille",
        "state": "France",
        "region": "Rhone Alpes ",
        "locality": "Savoyen / Mont-Blanc ",
        "lat": 45.46269,
        "lon": 6.96276,
        "begin": "Val d´Isere (1840 m)",
        "targetheight": 2216,
        "duration": 180,
        "difficultynum": 5,
        "difficultystr": "D/E",
        "link": "http://klettersteig.de/klettersteig/via_ferrata_les_plates_de_la_daille/947"
    },
    {
        "name": "Via ferrata de la Chal",
        "state": "France",
        "region": "Rhone Alpes ",
        "locality": "Maurienne ",
        "lat": 45.2795823106082,
        "lon": 6.20864868164062,
        "begin": "Chambery (272m)",
        "targetheight": 1522,
        "duration": 180,
        "difficultynum": 5,
        "difficultystr": "D/E",
        "link": "http://klettersteig.de/klettersteig/via_ferrata_de_la_chal/951"
    },
    {
        "name": "Franzl-Klettersteig",
        "state": "Austria",
        "region": "Salzburg ",
        "locality": "Niedere Tauern (Salzburg) ",
        "lat": 47.183333,
        "lon": 13.23,
        "begin": "Hüttschlag",
        "targetheight": 1320,
        "duration": 165,
        "difficultynum": 5,
        "difficultystr": "D/E",
        "link": "http://klettersteig.de/klettersteig/franzl_klettersteig/1866"
    },
    {
        "name": "Skywalk-Klettersteig",
        "state": "Austria",
        "region": "Steiermark ",
        "locality": "Dachstein ",
        "lat": 47.4658164687536,
        "lon": 13.6240768432617,
        "begin": "Ramsau am Dachstein (1135 m)",
        "targetheight": 2687,
        "duration": 150,
        "difficultynum": 5,
        "difficultystr": "D/E",
        "link": "http://klettersteig.de/klettersteig/skywalk_klettersteig/1484"
    },
    {
        "name": "Via ferrata di Camoglieres",
        "state": "Italy",
        "region": "Piemont / Aosta ",
        "locality": "Cottische Alpen ",
        "lat": 44.50512,
        "lon": 7.19783,
        "begin": "Dronero (625)",
        "targetheight": 1416,
        "duration": 150,
        "difficultynum": 5,
        "difficultystr": "D/E",
        "link": "http://klettersteig.de/klettersteig/via_ferrata_di_camoglieres/1540"
    },
    {
        "name": "Pursteinwand Klettersteig",
        "state": "Italy",
        "region": "Südtirol-Trentino ",
        "locality": "Ahrntaler + Zillertaler Alpen ",
        "lat": 46.91291,
        "lon": 11.94704,
        "begin": "Sand in Taufers (874 m)",
        "targetheight": 1130,
        "duration": 150,
        "difficultynum": 5,
        "difficultystr": "D/E",
        "link": "http://klettersteig.de/klettersteig/pursteinwand_klettersteig/701"
    },
    {
        "name": "HTL-Steig",
        "state": "Austria",
        "region": "Niederösterreich ",
        "locality": "Hohe Wand (Gutensteiner) ",
        "lat": 47.8309621122698,
        "lon": 16.0502529144287,
        "begin": "Maiersdorf (502 m)",
        "targetheight": 892,
        "duration": 135,
        "difficultynum": 5,
        "difficultystr": "D/E",
        "link": "http://klettersteig.de/klettersteig/htl_steig/335"
    },
    {
        "name": "Kupfergeist Klettersteig",
        "state": "Austria",
        "region": "Salzburg ",
        "locality": "Niedere Tauern (Salzburg) ",
        "lat": 47.177856,
        "lon": 13.24,
        "begin": "Hüttschlag",
        "targetheight": 1280,
        "duration": 135,
        "difficultynum": 5,
        "difficultystr": "D/E",
        "link": "http://klettersteig.de/klettersteig/kupfergeist_klettersteig/1728"
    },
    {
        "name": "Steinwand-Klettersteig Arzl / Falkensteig / Burgstall-Klettersteig",
        "state": "Austria",
        "region": "Tirol ",
        "locality": "Ötztaler Alpen (Tirol) ",
        "lat": 47.2061803405155,
        "lon": 10.7567846775055,
        "begin": "Imst, Arzl im Pitztal",
        "targetheight": 1051,
        "duration": 130,
        "difficultynum": 5,
        "difficultystr": "D/E",
        "link": "http://klettersteig.de/klettersteig/steinwand_klettersteig_arzl_falkensteig_burgstall_klettersteig/1611"
    },
    {
        "name": "Reinhard Schiestl Klettersteig",
        "state": "Austria",
        "region": "Tirol ",
        "locality": "Ötztaler Alpen (Tirol) ",
        "lat": 47.05915,
        "lon": 10.96558,
        "begin": "Längenfeld (1180 m)",
        "targetheight": 1424,
        "duration": 120,
        "difficultynum": 5,
        "difficultystr": "D/E",
        "link": "http://klettersteig.de/klettersteig/reinhard_schiestl_klettersteig/157"
    },
    {
        "name": "Ottenalm Direttissima Klettersteig (Klettersteigarena Kaiserwinkl)",
        "state": "Austria",
        "region": "Tirol ",
        "locality": "Chiemgauer Alpen ",
        "lat": 47.664516,
        "lon": 12.351801,
        "begin": "Walchsee (655 m)",
        "targetheight": 1117,
        "duration": 120,
        "difficultynum": 5,
        "difficultystr": "D/E",
        "link": "http://klettersteig.de/klettersteig/ottenalm_direttissima_klettersteig_klettersteigarena_kaiserwinkl_/1791"
    },
    {
        "name": "Klettersteig Landschaftspark (Via ferrata Monte Thysso)",
        "state": "Germany",
        "region": "Nordrheinwestfalen ",
        "locality": "Ruhrgebiet ",
        "lat": 51.48297,
        "lon": 6.78096,
        "begin": "Duisburg",
        "targetheight": 37,
        "duration": 120,
        "difficultynum": 5,
        "difficultystr": "D/E",
        "link": "http://klettersteig.de/klettersteig/klettersteig_landschaftspark_via_ferrata_monte_thysso_/3"
    },
    {
        "name": "Via ferrata Les prises de la Bastille",
        "state": "France",
        "region": "Rhone Alpes ",
        "locality": "Chartreuse ",
        "lat": 45.19468,
        "lon": 5.71966,
        "begin": "Grenoble (214 m)",
        "targetheight": 498,
        "duration": 120,
        "difficultynum": 5,
        "difficultystr": "D/E",
        "link": "http://klettersteig.de/klettersteig/via_ferrata_les_prises_de_la_bastille/970"
    },
    {
        "name": "Via ferrata Saint-Pierre I",
        "state": "France",
        "region": "Rhone Alpes ",
        "locality": "Maurienne ",
        "lat": 45.16368,
        "lon": 6.42306,
        "begin": "Valloire (1401 m)",
        "targetheight": 1582,
        "duration": 120,
        "difficultynum": 5,
        "difficultystr": "D/E",
        "link": "http://klettersteig.de/klettersteig/via_ferrata_saint_pierre_i/956"
    },
    {
        "name": "San-Salvatore-Klettersteig (via ferrata d´arrampicata)",
        "state": "Swiss",
        "region": "Graubünden / Tessin ",
        "locality": "Tessiner Alpen (Tessin) ",
        "lat": 45.9821723248923,
        "lon": 8.95025253295898,
        "begin": "Lugano (273 m)",
        "targetheight": 912,
        "duration": 120,
        "difficultynum": 5,
        "difficultystr": "D/E",
        "link": "http://klettersteig.de/klettersteig/san_salvatore_klettersteig_via_ferrata_d_arrampicata_/901"
    },
    {
        "name": "Via ferrata du Planpraz (Plan-Praz)",
        "state": "Swiss",
        "region": "Schweizer Mittelland ",
        "locality": "Waadtländer Alpen ",
        "lat": 46.34959371,
        "lon": 7.012689114,
        "begin": "Aigle (409 m)",
        "targetheight": 1550,
        "duration": 120,
        "difficultynum": 5,
        "difficultystr": "D/E",
        "link": "http://klettersteig.de/klettersteig/via_ferrata_du_planpraz_plan_praz_/1432"
    },
    {
        "name": "Via Ferrata de Moiry",
        "state": "Swiss",
        "region": "Wallis ",
        "locality": "Walliser Alpen ",
        "lat": 46.1396417745279,
        "lon": 7.5731635093689,
        "begin": "Sierre",
        "targetheight": 2350,
        "duration": 120,
        "difficultynum": 5,
        "difficultystr": "D/E",
        "link": "http://klettersteig.de/klettersteig/via_ferrata_de_moiry/1533"
    },
    {
        "name": "Nordanstieg (Nordostschlucht Klettersteig)(Wischberg)",
        "state": "Italy",
        "region": "Friaul ",
        "locality": "Julische Alpen (Belluno / Friaul) ",
        "lat": 46.43356839,
        "lon": 13.50007296,
        "begin": "Wolfsbach (Valbruna)(807 m)",
        "targetheight": 2666,
        "duration": 720,
        "difficultynum": 5,
        "difficultystr": "D/E",
        "link": "http://klettersteig.de/klettersteig/nordanstieg_nordostschlucht_klettersteig_wischberg_/1406"
    },
    {
        "name": "Via alta della Verzasca (Passo di Piatto)",
        "state": "Swiss",
        "region": "Graubünden / Tessin ",
        "locality": "Tessiner Alpen (Tessin) ",
        "lat": 46.2531168016665,
        "lon": 8.92227172851562,
        "begin": "Sonogno (918 m)",
        "targetheight": 2172,
        "duration": 630,
        "difficultynum": 5,
        "difficultystr": "D/E",
        "link": "http://klettersteig.de/klettersteig/via_alta_della_verzasca_passo_di_piatto_/1040"
    },
    {
        "name": "Via ferrata de l´Adret: Le Bastion (leider gesperrt)",
        "state": "France",
        "region": "Rhone Alpes ",
        "locality": "Maurienne ",
        "lat": 45.3161394495134,
        "lon": 6.34033441543579,
        "begin": "Chambery (272 m)",
        "targetheight": 775,
        "duration": 115,
        "difficultynum": 5,
        "difficultystr": "D/E",
        "link": "http://klettersteig.de/klettersteig/via_ferrata_de_l_adret_le_bastion_leider_gesperrt_/953"
    },
    {
        "name": "Eppenbergsteig II",
        "state": "Swiss",
        "region": "Schweizer Mittelland ",
        "locality": "Schweizer Jura ",
        "lat": 47.3794274633294,
        "lon": 8.01880717277527,
        "begin": "Aarau / Wöschnau",
        "targetheight": 491,
        "duration": 105,
        "difficultynum": 5,
        "difficultystr": "D/E",
        "link": "http://klettersteig.de/klettersteig/eppenbergsteig_ii/1073"
    },
    {
        "name": "Sentiero attrezzato Ernesto Franco",
        "state": "Italy",
        "region": "Lombardei ",
        "locality": "Gardaseeberge (Lombardei) ",
        "lat": 45.67613,
        "lon": 10.56206,
        "begin": "Salo",
        "targetheight": 1160,
        "duration": 105,
        "difficultynum": 5,
        "difficultystr": "D/E",
        "link": "http://klettersteig.de/klettersteig/sentiero_attrezzato_ernesto_franco/745"
    },
    {
        "name": "Zimmereben Klettersteig",
        "state": "Austria",
        "region": "Tirol ",
        "locality": "Zillertaler Alpen (Tirol) ",
        "lat": 47.17463,
        "lon": 11.861,
        "begin": "Mayrhofen",
        "targetheight": 853,
        "duration": 90,
        "difficultynum": 5,
        "difficultystr": "D/E",
        "link": "http://klettersteig.de/klettersteig/zimmereben_klettersteig/1649"
    },
    {
        "name": "Sentiero attrezzato Orrido di Chianocco",
        "state": "Italy",
        "region": "Piemont / Aosta ",
        "locality": "Grajische Alpen ",
        "lat": 45.15008,
        "lon": 7.17183,
        "begin": "Chianocco (520 m)",
        "targetheight": 600,
        "duration": 90,
        "difficultynum": 5,
        "difficultystr": "D/E",
        "link": "http://klettersteig.de/klettersteig/sentiero_attrezzato_orrido_di_chianocco/837"
    },
    {
        "name": "Via ferrata de consolation (voie des Missionaires)",
        "state": "France",
        "region": "Franche-Comte ",
        "locality": "Jura / Doubs ",
        "lat": 47.153482,
        "lon": 6.601601,
        "begin": "Consolation-Maisonettes (510 m)",
        "targetheight": 680,
        "duration": 45,
        "difficultynum": 5,
        "difficultystr": "D/E",
        "link": "http://klettersteig.de/klettersteig/via_ferrata_de_consolation_voie_des_missionaires_/1809"
    },
    {
        "name": "DAV-Klettersteig ´Yeti`s Weg´",
        "state": "Germany",
        "region": "Sachsen ",
        "locality": "Erzgebirge ",
        "lat": 50.665145029396,
        "lon": 13.06147813797,
        "begin": "Wolkenstein (Sachsen)",
        "targetheight": 400,
        "duration": 30,
        "difficultynum": 5,
        "difficultystr": "D/E",
        "link": "http://klettersteig.de/klettersteig/dav_klettersteig_yeti_s_weg_/1471"
    },
    {
        "name": "Ferrata Costantini",
        "state": "Italy",
        "region": "Venetien ",
        "locality": "Civetta ",
        "lat": 46.3262609410647,
        "lon": 12.0717644691467,
        "begin": "Agordo",
        "targetheight": 2878,
        "duration": 570,
        "difficultynum": 4.5,
        "difficultystr": "D",
        "link": "http://klettersteig.de/klettersteig/ferrata_costantini/684"
    },
    {
        "name": "Weg der 26er",
        "state": "Austria",
        "region": "Kärnten ",
        "locality": "Karnische Alpen (Kärnten) ",
        "lat": 46.622644,
        "lon": 12.932335,
        "begin": "Kötschach-Mauthen (707 m)",
        "targetheight": 2780,
        "duration": 540,
        "difficultynum": 4.5,
        "difficultystr": "D",
        "link": "http://klettersteig.de/klettersteig/weg_der_26er/450"
    },
    {
        "name": "Via ferrata Gianni Aglio (Gianna Aglia)",
        "state": "Italy",
        "region": "Venetien ",
        "locality": "Tofanen ",
        "lat": 46.54139,
        "lon": 12.07111,
        "begin": "Cortina d'Ampezzo",
        "targetheight": 3244,
        "duration": 540,
        "difficultynum": 4.5,
        "difficultystr": "D",
        "link": "http://klettersteig.de/klettersteig/via_ferrata_gianni_aglio_gianna_aglia_/641"
    },
    {
        "name": "Leoganger Süd",
        "state": "Austria",
        "region": "Salzburg ",
        "locality": "Loferer + Leoganger Steinberge ",
        "lat": 47.47,
        "lon": 12.758677,
        "begin": "Leogang (788m)",
        "targetheight": 2160,
        "duration": 510,
        "difficultynum": 4.5,
        "difficultystr": "D",
        "link": "http://klettersteig.de/klettersteig/leoganger_sued/1120"
    },
    {
        "name": "Via della Vita",
        "state": "Italy",
        "region": "Friaul ",
        "locality": "Julische Alpen (Belluno / Friaul) ",
        "lat": 46.44201198,
        "lon": 13.67874026,
        "begin": "Tarvisio (743 m)",
        "targetheight": 2160,
        "duration": 510,
        "difficultynum": 4.5,
        "difficultystr": "D",
        "link": "http://klettersteig.de/klettersteig/via_della_vita/526"
    },
    {
        "name": "Via Amalia Zuani Bornettini",
        "state": "Italy",
        "region": "Friaul ",
        "locality": "Julische Alpen (Belluno / Friaul) ",
        "lat": 46.4390103,
        "lon": 13.43679428,
        "begin": "Tarvis (743 m)",
        "targetheight": 2754,
        "duration": 480,
        "difficultynum": 4.5,
        "difficultystr": "D",
        "link": "http://klettersteig.de/klettersteig/via_amalia_zuani_bornettini/545"
    },
    {
        "name": "Jubiläumsklettersteig (Eselstein)",
        "state": "Austria",
        "region": "Steiermark ",
        "locality": "Dachstein ",
        "lat": 47.4520049149084,
        "lon": 13.6747169494629,
        "begin": "Ramsau am Dachstein (1135 m)",
        "targetheight": 2553,
        "duration": 450,
        "difficultynum": 4.5,
        "difficultystr": "D",
        "link": "http://klettersteig.de/klettersteig/jubilaeumsklettersteig_eselstein_/359"
    },
    {
        "name": "Berchtesgadener Hochthronsteig (Marktschellenberger Klettersteig)",
        "state": "Germany",
        "region": "Bayern ",
        "locality": "Berchtesgadener Alpen (Bayern) ",
        "lat": 47.69232,
        "lon": 12.99498,
        "begin": "Marktschellenberg (477 m)",
        "targetheight": 1975,
        "duration": 450,
        "difficultynum": 4.5,
        "difficultystr": "D",
        "link": "http://klettersteig.de/klettersteig/berchtesgadener_hochthronsteig_marktschellenberger_klettersteig_/1542"
    },
    {
        "name": "Pößnecker Klettersteig (Pössnecker)",
        "state": "Italy",
        "region": "Südtirol-Trentino ",
        "locality": "Sella ",
        "lat": 46.51538,
        "lon": 11.77967,
        "begin": "Wolkenstein (1563 m)",
        "targetheight": 2941,
        "duration": 450,
        "difficultynum": 4.5,
        "difficultystr": "D",
        "link": "http://klettersteig.de/klettersteig/poessnecker_klettersteig_poessnecker_/580"
    },
    {
        "name": "Ebenseer Hochkogel Klettersteig",
        "state": "Austria",
        "region": "Oberösterreich ",
        "locality": "Salzkammergutberge ",
        "lat": 47.72,
        "lon": 13.79,
        "begin": "Ebensee",
        "targetheight": 1592,
        "duration": 420,
        "difficultynum": 4.5,
        "difficultystr": "D",
        "link": "http://klettersteig.de/klettersteig/ebenseer_hochkogel_klettersteig/1835"
    },
    {
        "name": "Südsporn-Klettersteig",
        "state": "Austria",
        "region": "Steiermark ",
        "locality": "Totes Gebirge ",
        "lat": 47.696389,
        "lon": 14.149444,
        "begin": "Hinterstoder",
        "targetheight": 2515,
        "duration": 420,
        "difficultynum": 4.5,
        "difficultystr": "D",
        "link": "http://klettersteig.de/klettersteig/suedsporn_klettersteig/1861"
    },
    {
        "name": "Köllenspitz- (Kellenspitz-) Klettersteig/Südsporn",
        "state": "Austria",
        "region": "Tirol ",
        "locality": "Tannheimer Berge ",
        "lat": 47.498986,
        "lon": 10.630158,
        "begin": "Nesselwängle (1136 m)",
        "targetheight": 2238,
        "duration": 420,
        "difficultynum": 4.5,
        "difficultystr": "D",
        "link": "http://klettersteig.de/klettersteig/koellenspitz_kellenspitz_klettersteig_suedsporn/71"
    },
    {
        "name": "Pidinger Klettersteig",
        "state": "Germany",
        "region": "Bayern ",
        "locality": "Berchtesgadener Alpen (Bayern) ",
        "lat": 47.75474,
        "lon": 12.84742,
        "begin": "Piding / Mauthausen (459 m)",
        "targetheight": 1771,
        "duration": 420,
        "difficultynum": 4.5,
        "difficultystr": "D",
        "link": "http://klettersteig.de/klettersteig/pidinger_klettersteig/150"
    },
    {
        "name": "Via ferrata Bethaz-Bovard",
        "state": "Italy",
        "region": "Piemont / Aosta ",
        "locality": "Aostatal ",
        "lat": 45.62936,
        "lon": 7.06097,
        "begin": "Valgrisenche (1664 m)",
        "targetheight": 2605,
        "duration": 405,
        "difficultynum": 4.5,
        "difficultystr": "D",
        "link": "http://klettersteig.de/klettersteig/via_ferrata_bethaz_bovard/820"
    },
    {
        "name": "Klettersteig Lachenspitze Nordwand",
        "state": "Austria",
        "region": "Tirol ",
        "locality": "Tannheimer Berge ",
        "lat": 47.44143,
        "lon": 10.51747,
        "begin": "Tannheim",
        "targetheight": 2126,
        "duration": 390,
        "difficultynum": 4.5,
        "difficultystr": "D",
        "link": "http://klettersteig.de/klettersteig/klettersteig_lachenspitze_nordwand/1713"
    },
    {
        "name": "Klettersteig Nordwand (Elferturm)",
        "state": "Austria",
        "region": "Tirol ",
        "locality": "Stubaier Alpen (Tirol) ",
        "lat": 47.08248,
        "lon": 11.31283,
        "begin": "Neustift (993 m)",
        "targetheight": 2482,
        "duration": 390,
        "difficultynum": 4.5,
        "difficultystr": "D",
        "link": "http://klettersteig.de/klettersteig/klettersteig_nordwand_elferturm_/173"
    },
    {
        "name": "Laserz-Klettersteig",
        "state": "Austria",
        "region": "Tirol ",
        "locality": "Lienzer Dolomiten ",
        "lat": 46.76743,
        "lon": 12.804745,
        "begin": "Lienz (673 m)",
        "targetheight": 2560,
        "duration": 390,
        "difficultynum": 4.5,
        "difficultystr": "D",
        "link": "http://klettersteig.de/klettersteig/laserz_klettersteig/1486"
    },
    {
        "name": "Ferrata Cassiopea",
        "state": "Italy",
        "region": "Friaul ",
        "locality": "Karnische Alpen (Belluno / Friaul) ",
        "lat": 46.37753,
        "lon": 12.55075,
        "begin": "Forni di Sopra",
        "targetheight": 2260,
        "duration": 390,
        "difficultynum": 4.5,
        "difficultystr": "D",
        "link": "http://klettersteig.de/klettersteig/ferrata_cassiopea/560"
    },
    {
        "name": "Kaiser Franz-Josef Klettersteig (Franz-Joseph)",
        "state": "Austria",
        "region": "Steiermark ",
        "locality": "Hochschwab ",
        "lat": 47.573651,
        "lon": 14.852532,
        "begin": "Leopoldsteiner See (628 m)",
        "targetheight": 1650,
        "duration": 375,
        "difficultynum": 4.5,
        "difficultystr": "D",
        "link": "http://klettersteig.de/klettersteig/kaiser_franz_josef_klettersteig_franz_joseph_/1549"
    },
    {
        "name": "Klettersteig Cesare Piazzetta (Piazetta)",
        "state": "Italy",
        "region": "Südtirol-Trentino ",
        "locality": "Sella ",
        "lat": 46.50239,
        "lon": 11.83043,
        "begin": "Passo Pordoi",
        "targetheight": 3152,
        "duration": 360,
        "difficultynum": 4.5,
        "difficultystr": "D",
        "link": "http://klettersteig.de/klettersteig/klettersteig_cesare_piazzetta_piazetta_/581"
    },
    {
        "name": "Ferrata de la Teresina y Sant Jeroni",
        "state": "Spain",
        "region": "Katalonien ",
        "locality": "Serra del Cadi ",
        "lat": 41.604672,
        "lon": 1.815789,
        "begin": "Monistrol de Montserrat (161m)",
        "targetheight": 1237,
        "duration": 360,
        "difficultynum": 4.5,
        "difficultystr": "D",
        "link": "http://klettersteig.de/klettersteig/ferrata_de_la_teresina_y_sant_jeroni/1172"
    },
    {
        "name": "Klettersteig Edelweiß",
        "state": "Austria",
        "region": "Tirol ",
        "locality": "Stubaier Alpen (Tirol) ",
        "lat": 47.085939,
        "lon": 11.165895,
        "begin": "Milders (1026 m)",
        "targetheight": 2149,
        "duration": 345,
        "difficultynum": 4.5,
        "difficultystr": "D",
        "link": "http://klettersteig.de/klettersteig/klettersteig_edelweiss/175"
    },
    {
        "name": "Eisenerzer Klettersteig (ex Westgrat Klettersteig)",
        "state": "Austria",
        "region": "Steiermark ",
        "locality": "Hochschwab ",
        "lat": 47.5576463241396,
        "lon": 14.9096488952637,
        "begin": "Eisenerz (736 m)",
        "targetheight": 1865,
        "duration": 330,
        "difficultynum": 4.5,
        "difficultystr": "D",
        "link": "http://klettersteig.de/klettersteig/eisenerzer_klettersteig_ex_westgrat_klettersteig_/1444"
    },
    {
        "name": "Fünf-Gipfel-Klettersteig",
        "state": "Austria",
        "region": "Tirol ",
        "locality": "Rofan ",
        "lat": 47.424336,
        "lon": 11.75146,
        "begin": "Maurach (975 m)",
        "targetheight": 2299,
        "duration": 300,
        "difficultynum": 4.5,
        "difficultystr": "D",
        "link": "http://klettersteig.de/klettersteig/fuenf_gipfel_klettersteig/1796"
    },
    {
        "name": "Große Kinigat Klettersteig",
        "state": "Austria",
        "region": "Tirol ",
        "locality": "Karnische Alpen (Osttirol) ",
        "lat": 46.6766500602,
        "lon": 12.5189208984,
        "begin": "Kartitsch",
        "targetheight": 2689,
        "duration": 300,
        "difficultynum": 4.5,
        "difficultystr": "D",
        "link": "http://klettersteig.de/klettersteig/grosse_kinigat_klettersteig/1890"
    },
    {
        "name": "Klettersteig ´zur schönen Aussicht´",
        "state": "Austria",
        "region": "Tirol ",
        "locality": "Zillertaler Alpen (Tirol) ",
        "lat": 47.059071,
        "lon": 11.960824,
        "begin": "Mayrhofen (633m)",
        "targetheight": 2456,
        "duration": 285,
        "difficultynum": 4.5,
        "difficultystr": "D",
        "link": "http://klettersteig.de/klettersteig/klettersteig_zur_schoenen_aussicht_/1376"
    },
    {
        "name": "Ferrata del Centenario C.A.O.",
        "state": "Italy",
        "region": "Lombardei ",
        "locality": "Comer See ",
        "lat": 46.05923,
        "lon": 9.21366,
        "begin": "Breglia (749 m)",
        "targetheight": 1736,
        "duration": 285,
        "difficultynum": 4.5,
        "difficultystr": "D",
        "link": "http://klettersteig.de/klettersteig/ferrata_del_centenario_c_a_o_/819"
    },
    {
        "name": "Via ferrata del ´30´ Trentennale O.S.A.",
        "state": "Italy",
        "region": "Lombardei ",
        "locality": "Comer See ",
        "lat": 45.85032,
        "lon": 9.35143,
        "begin": "Valmadrera (234 m)",
        "targetheight": 1232,
        "duration": 285,
        "difficultynum": 4.5,
        "difficultystr": "D",
        "link": "http://klettersteig.de/klettersteig/via_ferrata_del_30_trentennale_o_s_a_/817"
    },
    {
        "name": "Via ferrata du Lac de Villefort",
        "state": "France",
        "region": "Languedoc-Roussillon ",
        "locality": "Lozere ",
        "lat": 44.44889,
        "lon": 3.902295,
        "begin": "Villefort",
        "targetheight": 720,
        "duration": 270,
        "difficultynum": 4.5,
        "difficultystr": "D",
        "link": "http://klettersteig.de/klettersteig/via_ferrata_du_lac_de_villefort/1965"
    },
    {
        "name": "Via Ferrata de Buis les Baronnies",
        "state": "France",
        "region": "Rhone Alpes ",
        "locality": "Dauphine ",
        "lat": 44.2683131,
        "lon": 5.27906477,
        "begin": "Buis les Baronnies (376 m)",
        "targetheight": 691,
        "duration": 270,
        "difficultynum": 4.5,
        "difficultystr": "D",
        "link": "http://klettersteig.de/klettersteig/via_ferrata_de_buis_les_baronnies/2061"
    },
    {
        "name": "via ferrata du grand bec",
        "state": "France",
        "region": "Rhone Alpes ",
        "locality": "Dauphine ",
        "lat": 45.027705,
        "lon": 5.881546,
        "begin": "La Morte (L’Alpe du Grand Serre)",
        "targetheight": 2276,
        "duration": 270,
        "difficultynum": 4.5,
        "difficultystr": "D",
        "link": "http://klettersteig.de/klettersteig/via_ferrata_du_grand_bec/1899"
    },
    {
        "name": "Via ferrata ´Ciao Miki´",
        "state": "Italy",
        "region": "Piemont / Aosta ",
        "locality": "Aostatal ",
        "lat": 45.636,
        "lon": 7.92866,
        "begin": "Biella",
        "targetheight": 2600,
        "duration": 270,
        "difficultynum": 4.5,
        "difficultystr": "D",
        "link": "http://klettersteig.de/klettersteig/via_ferrata_ciao_miki_/824"
    },
    {
        "name": "Via ferrata delle Trincee",
        "state": "Italy",
        "region": "Venetien ",
        "locality": "Marmoladagebiet ",
        "lat": 46.47284,
        "lon": 11.87376,
        "begin": "Arabba (1601m)",
        "targetheight": 2727,
        "duration": 270,
        "difficultynum": 4.5,
        "difficultystr": "D",
        "link": "http://klettersteig.de/klettersteig/via_ferrata_delle_trincee/585"
    },
    {
        "name": "Hexensteig",
        "state": "Swiss",
        "region": "Zentralschweiz ",
        "locality": "Urner Alpen ",
        "lat": 46.79962,
        "lon": 8.69306,
        "begin": "Silenen",
        "targetheight": 1835,
        "duration": 255,
        "difficultynum": 4.5,
        "difficultystr": "D",
        "link": "http://klettersteig.de/klettersteig/hexensteig/1849"
    },
    {
        "name": "Postalmklamm mit F-Variante",
        "state": "Austria",
        "region": "Oberösterreich ",
        "locality": "Salzkammergutberge ",
        "lat": 47.66,
        "lon": 13.45,
        "begin": "Strobl (544 m)",
        "targetheight": 1040,
        "duration": 240,
        "difficultynum": 4.5,
        "difficultystr": "D",
        "link": "http://klettersteig.de/klettersteig/postalmklamm_mit_f_variante/1454"
    },
    {
        "name": "Anna Klettersteig",
        "state": "Austria",
        "region": "Steiermark ",
        "locality": "Dachstein ",
        "lat": 47.4503217465035,
        "lon": 13.6175537109375,
        "begin": "Ramsau am Dachstein",
        "targetheight": 2097,
        "duration": 240,
        "difficultynum": 4.5,
        "difficultystr": "D",
        "link": "http://klettersteig.de/klettersteig/anna_klettersteig/1853"
    },
    {
        "name": "Hanauer Klettersteig (schwere Variante)",
        "state": "Austria",
        "region": "Tirol ",
        "locality": "Lechtaler Alpen ",
        "lat": 47.283185,
        "lon": 10.606591,
        "begin": "Elmen",
        "targetheight": 1922,
        "duration": 240,
        "difficultynum": 4.5,
        "difficultystr": "D",
        "link": "http://klettersteig.de/klettersteig/hanauer_klettersteig_schwere_variante_/1785"
    },
    {
        "name": "Seekarlspitze",
        "state": "Austria",
        "region": "Tirol ",
        "locality": "Rofan ",
        "lat": 47.422778,
        "lon": 11.751944,
        "begin": "Maurach",
        "targetheight": 2261,
        "duration": 240,
        "difficultynum": 4.5,
        "difficultystr": "D",
        "link": "http://klettersteig.de/klettersteig/seekarlspitze/1862"
    },
    {
        "name": "Via Farinetta",
        "state": "Swiss",
        "region": "Wallis ",
        "locality": "Walliser Alpen ",
        "lat": 46.166671,
        "lon": 7.18332,
        "begin": "Martigny",
        "targetheight": 817,
        "duration": 240,
        "difficultynum": 4.5,
        "difficultystr": "D",
        "link": "http://klettersteig.de/klettersteig/via_farinetta/1838"
    },
    {
        "name": "Ferrata Monte Due Mani",
        "state": "Italy",
        "region": "Lombardei ",
        "locality": "Comer See ",
        "lat": 45.88061,
        "lon": 9.44146,
        "begin": "Ballabio (661 m)",
        "targetheight": 1308,
        "duration": 240,
        "difficultynum": 4.5,
        "difficultystr": "D",
        "link": "http://klettersteig.de/klettersteig/ferrata_monte_due_mani/804"
    },
    {
        "name": "Via ferrata Nito Staich",
        "state": "Italy",
        "region": "Piemont / Aosta ",
        "locality": "Aostatal ",
        "lat": 45.63095,
        "lon": 7.96202,
        "begin": "Oropa (1185 m)",
        "targetheight": 2230,
        "duration": 240,
        "difficultynum": 4.5,
        "difficultystr": "D",
        "link": "http://klettersteig.de/klettersteig/via_ferrata_nito_staich/1539"
    },
    {
        "name": "Klettersteig Falkensteig",
        "state": "Austria",
        "region": "Kärnten ",
        "locality": "Ankogelgruppe/Nockberge ",
        "lat": 46.862682,
        "lon": 13.832924,
        "begin": "Patergassen 1015 m",
        "targetheight": 2308,
        "duration": 210,
        "difficultynum": 4.5,
        "difficultystr": "D",
        "link": "http://klettersteig.de/klettersteig/klettersteig_falkensteig/1714"
    },
    {
        "name": "Via ferrata Tour d´Ai",
        "state": "Swiss",
        "region": "Schweizer Mittelland ",
        "locality": "Waadtländer Alpen ",
        "lat": 46.3714508080371,
        "lon": 7.00146675109863,
        "begin": "Aigle (409 m)",
        "targetheight": 2331,
        "duration": 210,
        "difficultynum": 4.5,
        "difficultystr": "D",
        "link": "http://klettersteig.de/klettersteig/via_ferrata_tour_d_ai/898"
    },
    {
        "name": "Via attrezzata Monte Albano ´Ottorino Marangoni´",
        "state": "Italy",
        "region": "Südtirol-Trentino ",
        "locality": "Gardaseeberge (Trentino) ",
        "lat": 45.8583,
        "lon": 10.98075,
        "begin": "Mori (204 m)",
        "targetheight": 560,
        "duration": 210,
        "difficultynum": 4.5,
        "difficultystr": "D",
        "link": "http://klettersteig.de/klettersteig/via_attrezzata_monte_albano_ottorino_marangoni_/738"
    },
    {
        "name": "Via ferrata dei Finanzieri",
        "state": "Italy",
        "region": "Südtirol-Trentino ",
        "locality": "Fassaner Dolomiten ",
        "lat": 46.45787,
        "lon": 11.78819,
        "begin": "Alba (1517m) bei Canazei",
        "targetheight": 2715,
        "duration": 210,
        "difficultynum": 4.5,
        "difficultystr": "D",
        "link": "http://klettersteig.de/klettersteig/via_ferrata_dei_finanzieri/600"
    },
    {
        "name": "Gamssteig",
        "state": "Austria",
        "region": "Tirol ",
        "locality": "Ötztaler Alpen (Tirol) ",
        "lat": 46.938008,
        "lon": 10.894594,
        "begin": "St. Leonhard im Pitztal (1365 m)",
        "targetheight": 2300,
        "duration": 195,
        "difficultynum": 4.5,
        "difficultystr": "D",
        "link": "http://klettersteig.de/klettersteig/gamssteig/1732"
    },
    {
        "name": "Via ferrata Chisa",
        "state": "France",
        "region": "Korsika ",
        "locality": "Korsika ",
        "lat": 41.929486,
        "lon": 9.271287,
        "begin": "Chisa (464 m)",
        "targetheight": 686,
        "duration": 195,
        "difficultynum": 4.5,
        "difficultystr": "D",
        "link": "http://klettersteig.de/klettersteig/via_ferrata_chisa/1017"
    },
    {
        "name": "Les Canyons de Lantosque - les gorges de la Vesubie",
        "state": "France",
        "region": "Provence ",
        "locality": "Seealpen ",
        "lat": 43.9667,
        "lon": 7.31667,
        "begin": "Mairie de Lantosque (510m)",
        "targetheight": 500,
        "duration": 180,
        "difficultynum": 4.5,
        "difficultystr": "D",
        "link": "http://klettersteig.de/klettersteig/les_canyons_de_lantosque_les_gorges_de_la_vesubie/1137"
    },
    {
        "name": "Via ferrata d´Andagne (Parcours Guy Favre)",
        "state": "France",
        "region": "Rhone Alpes ",
        "locality": "Maurienne ",
        "lat": 45.3442732904945,
        "lon": 7.03474760055542,
        "begin": "Bessans (1705 m)",
        "targetheight": 2263,
        "duration": 180,
        "difficultynum": 4.5,
        "difficultystr": "D",
        "link": "http://klettersteig.de/klettersteig/via_ferrata_d_andagne_parcours_guy_favre_/1118"
    },
    {
        "name": "Moleson Klettersteig (Voie Hohl, par la face)",
        "state": "Swiss",
        "region": "Schweizer Mittelland ",
        "locality": "Freiburger Alpen ",
        "lat": 46.5525819,
        "lon": 7.01803207,
        "begin": "Moleson-Village (1132 m)",
        "targetheight": 2002,
        "duration": 180,
        "difficultynum": 4.5,
        "difficultystr": "D",
        "link": "http://klettersteig.de/klettersteig/moleson_klettersteig_voie_hohl_par_la_face_/1074"
    },
    {
        "name": "Fruttstägä/Fruttstiege-Klettersteig",
        "state": "Swiss",
        "region": "Zentralschweiz ",
        "locality": "Urner Alpen ",
        "lat": 46.91115871,
        "lon": 8.71666968,
        "begin": "Bürglen",
        "targetheight": 1918,
        "duration": 180,
        "difficultynum": 4.5,
        "difficultystr": "D",
        "link": "http://klettersteig.de/klettersteig/fruttstaegae_fruttstiege_klettersteig/2060"
    },
    {
        "name": "Via ferrata Deanna Orlandini",
        "state": "Italy",
        "region": "Mittelitalien ",
        "locality": "Apennin ",
        "lat": 44.59266,
        "lon": 9.01768,
        "begin": "Crocefieschi (730 m)",
        "targetheight": 957,
        "duration": 180,
        "difficultynum": 4.5,
        "difficultystr": "D",
        "link": "http://klettersteig.de/klettersteig/via_ferrata_deanna_orlandini/1436"
    },
    {
        "name": "Croqueta de Obarra",
        "state": "Spain",
        "region": "Aragon ",
        "locality": "Huesca ",
        "lat": 42.399,
        "lon": 0.5975,
        "begin": "Obarra",
        "targetheight": 1396,
        "duration": 180,
        "difficultynum": 4.5,
        "difficultystr": "D",
        "link": "http://klettersteig.de/klettersteig/croqueta_de_obarra/1951"
    },
    {
        "name": "Klettersteig Echernwand",
        "state": "Austria",
        "region": "Steiermark ",
        "locality": "Dachstein ",
        "lat": 47.558,
        "lon": 13.642,
        "begin": "Hallstatt",
        "targetheight": 1386,
        "duration": 165,
        "difficultynum": 4.5,
        "difficultystr": "D",
        "link": "http://klettersteig.de/klettersteig/klettersteig_echernwand/1751"
    },
    {
        "name": "Rosina Klettersteig",
        "state": "Austria",
        "region": "Steiermark ",
        "locality": "Dachstein ",
        "lat": 47.437,
        "lon": 13.716,
        "begin": "Ramsau am Dachstein (1135m)",
        "targetheight": 1260,
        "duration": 165,
        "difficultynum": 4.5,
        "difficultystr": "D",
        "link": "http://klettersteig.de/klettersteig/rosina_klettersteig/2085"
    },
    {
        "name": "Klamml Klettersteig",
        "state": "Austria",
        "region": "Tirol ",
        "locality": "Wilder + Zahmer Kaiser ",
        "lat": 47.540914,
        "lon": 12.319247,
        "begin": "Ellmau (804m)",
        "targetheight": 1584,
        "duration": 165,
        "difficultynum": 4.5,
        "difficultystr": "D",
        "link": "http://klettersteig.de/klettersteig/klamml_klettersteig/1945"
    },
    {
        "name": "Blauspitzklettersteig",
        "state": "Austria",
        "region": "Tirol ",
        "locality": "Hohe Tauern (Osttirol) ",
        "lat": 47.009228,
        "lon": 12.63836,
        "begin": "Kals am Großglockner (1364 m)",
        "targetheight": 2575,
        "duration": 165,
        "difficultynum": 4.5,
        "difficultystr": "D",
        "link": "http://klettersteig.de/klettersteig/blauspitzklettersteig/1499"
    },
    {
        "name": "Ferrata del Gorbeillon",
        "state": "Italy",
        "region": "Piemont / Aosta ",
        "locality": "Aostatal ",
        "lat": 45.87629,
        "lon": 7.61912,
        "begin": "Valtournenche (1528 m)",
        "targetheight": 1850,
        "duration": 165,
        "difficultynum": 4.5,
        "difficultystr": "D",
        "link": "http://klettersteig.de/klettersteig/ferrata_del_gorbeillon/825"
    },
    {
        "name": "Gebirgsvereinssteig",
        "state": "Austria",
        "region": "Niederösterreich ",
        "locality": "Hohe Wand (Gutensteiner) ",
        "lat": 47.8032395,
        "lon": 16.0247611,
        "begin": "Grünbach am Schneeberg bzw. Oberhöflein oder Zweiersdorf",
        "targetheight": 946,
        "duration": 150,
        "difficultynum": 4.5,
        "difficultystr": "D",
        "link": "http://klettersteig.de/klettersteig/gebirgsvereinssteig/1936"
    },
    {
        "name": "Kitzlochklamm-Klettersteig /Kitzklettersteig",
        "state": "Austria",
        "region": "Salzburg ",
        "locality": "Goldberggruppe ",
        "lat": 47.286111,
        "lon": 12.974167,
        "begin": "Taxenbach",
        "targetheight": 850,
        "duration": 150,
        "difficultynum": 4.5,
        "difficultystr": "D",
        "link": "http://klettersteig.de/klettersteig/kitzlochklamm_klettersteig_kitzklettersteig/1842"
    },
    {
        "name": "Loser Panorama-Klettersteig Sissi\"\"",
        "state": "Austria",
        "region": "Steiermark ",
        "locality": "Totes Gebirge ",
        "lat": 47.660855,
        "lon": 13.770983,
        "begin": "Bad Aussee",
        "targetheight": 1837,
        "duration": 150,
        "difficultynum": 4.5,
        "difficultystr": "D",
        "link": "http://klettersteig.de/klettersteig/loser_panorama_klettersteig_sissi_/1544"
    },
    {
        "name": "Via ferrata des Gorges de Sarenne (sportive) (Pierre-Ronde)",
        "state": "France",
        "region": "Rhone Alpes ",
        "locality": "Dauphine ",
        "lat": 45.0834,
        "lon": 6.08977,
        "begin": "Grenoble (214 m)",
        "targetheight": 1855,
        "duration": 150,
        "difficultynum": 4.5,
        "difficultystr": "D",
        "link": "http://klettersteig.de/klettersteig/via_ferrata_des_gorges_de_sarenne_sportive_pierre_ronde_/1119"
    },
    {
        "name": "Klettersteig Gabi / Simplon",
        "state": "Swiss",
        "region": "Wallis ",
        "locality": "Walliser Alpen ",
        "lat": 46.185348,
        "lon": 8.077008,
        "begin": "Gabi (1230 m)",
        "targetheight": 1439,
        "duration": 150,
        "difficultynum": 4.5,
        "difficultystr": "D",
        "link": "http://klettersteig.de/klettersteig/klettersteig_gabi_simplon/1715"
    },
    {
        "name": "Via ferrata di Sant´ Antone",
        "state": "Italy",
        "region": "Mittelitalien ",
        "locality": "Apennin ",
        "lat": 43.73398,
        "lon": 10.56765,
        "begin": "Buti (85 m)",
        "targetheight": 526,
        "duration": 150,
        "difficultynum": 4.5,
        "difficultystr": "D",
        "link": "http://klettersteig.de/klettersteig/via_ferrata_di_sant_antone/1985"
    },
    {
        "name": "Via ferrata del Cabirol",
        "state": "Italy",
        "region": "Sardinien ",
        "locality": "Sassari (SS) ",
        "lat": 40.571462,
        "lon": 8.158031,
        "begin": "Alghero (SS)",
        "targetheight": 160,
        "duration": 150,
        "difficultynum": 4.5,
        "difficultystr": "D",
        "link": "http://klettersteig.de/klettersteig/via_ferrata_del_cabirol/1766"
    },
    {
        "name": "Via ferrata Col dei Bos (della Piramide, degli Alpini)",
        "state": "Italy",
        "region": "Südtirol-Trentino ",
        "locality": "Fanes ",
        "lat": 46.52524,
        "lon": 12.02718,
        "begin": "Passo Falzarego",
        "targetheight": 2420,
        "duration": 150,
        "difficultynum": 4.5,
        "difficultystr": "D",
        "link": "http://klettersteig.de/klettersteig/via_ferrata_col_dei_bos_della_piramide_degli_alpini_/1589"
    },
    {
        "name": "Via Ferrata Foradada del Toscar",
        "state": "Spain",
        "region": "Aragon ",
        "locality": "Huesca ",
        "lat": 42.4167,
        "lon": 0.3394,
        "begin": "Foradada del Toscar",
        "targetheight": 1361,
        "duration": 150,
        "difficultynum": 4.5,
        "difficultystr": "D",
        "link": "http://klettersteig.de/klettersteig/via_ferrata_foradada_del_toscar/1204"
    },
    {
        "name": "Via ferrata de la Guinguette",
        "state": "France",
        "region": "Rhone Alpes ",
        "locality": "Savoyen / Mont-Blanc ",
        "lat": 45.9,
        "lon": 5.53333,
        "begin": "Hostias",
        "targetheight": 710,
        "duration": 140,
        "difficultynum": 4.5,
        "difficultystr": "D",
        "link": "http://klettersteig.de/klettersteig/via_ferrata_de_la_guinguette/1127"
    },
    {
        "name": "Via ferrata Nicola Ciardelli",
        "state": "Italy",
        "region": "Piemont / Aosta ",
        "locality": "Cottische Alpen ",
        "lat": 44.98795,
        "lon": 7.11983,
        "begin": "Pinerolo",
        "targetheight": 1260,
        "duration": 140,
        "difficultynum": 4.5,
        "difficultystr": "D",
        "link": "http://klettersteig.de/klettersteig/via_ferrata_nicola_ciardelli/1632"
    },
    {
        "name": "Leite Klettersteig Nassereith",
        "state": "Austria",
        "region": "Tirol ",
        "locality": "Mieminger Kette + Wetterstein (Tirol) ",
        "lat": 47.315587,
        "lon": 10.847093,
        "begin": "Nassereith",
        "targetheight": 1100,
        "duration": 135,
        "difficultynum": 4.5,
        "difficultystr": "D",
        "link": "http://klettersteig.de/klettersteig/leite_klettersteig_nassereith/1761"
    },
    {
        "name": "Gorges de la Durance - Via ferrata sportiv",
        "state": "France",
        "region": "Provence ",
        "locality": "Provence-Alpes ",
        "lat": 44.808958,
        "lon": 6.565157,
        "begin": "Argentiere-la-Bessee (979 m)",
        "targetheight": 1148,
        "duration": 135,
        "difficultynum": 4.5,
        "difficultystr": "D",
        "link": "http://klettersteig.de/klettersteig/gorges_de_la_durance_via_ferrata_sportiv/986"
    },
    {
        "name": "Sentiero attrezzato Orrido di Foresto",
        "state": "Italy",
        "region": "Piemont / Aosta ",
        "locality": "Grajische Alpen ",
        "lat": 45.14349,
        "lon": 7.11396,
        "begin": "Bussoleno (420 m)",
        "targetheight": 630,
        "duration": 135,
        "difficultynum": 4.5,
        "difficultystr": "D",
        "link": "http://klettersteig.de/klettersteig/sentiero_attrezzato_orrido_di_foresto/838"
    },
    {
        "name": "Via Ferrata de la Cascade",
        "state": "Swiss",
        "region": "Schweizer Mittelland ",
        "locality": "Berner Alpen Nord ",
        "lat": 46.34840879,
        "lon": 7.19894171,
        "begin": "Gsteig",
        "targetheight": 1520,
        "duration": 125,
        "difficultynum": 4.5,
        "difficultystr": "D",
        "link": "http://klettersteig.de/klettersteig/via_ferrata_de_la_cascade/1531"
    },
    {
        "name": "Kaisergamssteig",
        "state": "Austria",
        "region": "Steiermark ",
        "locality": "Hochschwab ",
        "lat": 47.711115,
        "lon": 14.839089,
        "begin": "Palfau (538 m)",
        "targetheight": 983,
        "duration": 120,
        "difficultynum": 4.5,
        "difficultystr": "D",
        "link": "http://klettersteig.de/klettersteig/kaisergamssteig_/1095"
    },
    {
        "name": "Via ferrata de Rougemont / Voie 3",
        "state": "Swiss",
        "region": "Schweizer Mittelland ",
        "locality": "Waadtländer Alpen ",
        "lat": 46.4628713635282,
        "lon": 7.20788955688477,
        "begin": "Rougemont (992 m)",
        "targetheight": 2284,
        "duration": 120,
        "difficultynum": 4.5,
        "difficultystr": "D",
        "link": "http://klettersteig.de/klettersteig/via_ferrata_de_rougemont_voie_3/1449"
    },
    {
        "name": "Via ferrata Ferrante di Ruffano",
        "state": "Italy",
        "region": "Friaul ",
        "locality": "Karnische Alpen (Belluno / Friaul) ",
        "lat": 46.51582,
        "lon": 13.32404,
        "begin": "Pontebba",
        "targetheight": 750,
        "duration": 120,
        "difficultynum": 4.5,
        "difficultystr": "D",
        "link": "http://klettersteig.de/klettersteig/via_ferrata_ferrante_di_ruffano/1977"
    },
    {
        "name": "Via ferrata di Roccabianca (Roccasella / Caprie)",
        "state": "Italy",
        "region": "Piemont / Aosta ",
        "locality": "Grajische Alpen ",
        "lat": 45.12273,
        "lon": 7.33844,
        "begin": "Caprie (374 m)",
        "targetheight": 700,
        "duration": 120,
        "difficultynum": 4.5,
        "difficultystr": "D",
        "link": "http://klettersteig.de/klettersteig/via_ferrata_di_roccabianca_roccasella_caprie_/1329"
    },
    {
        "name": "Ferrata de las Damas",
        "state": "Spain",
        "region": "Katalonien ",
        "locality": "Serra del Cadi ",
        "lat": 41.579257,
        "lon": 1.81189,
        "begin": "Collbató 365m",
        "duration": 120,
        "difficultynum": 4.5,
        "difficultystr": "D",
        "link": "http://klettersteig.de/klettersteig/ferrata_de_las_damas/1174"
    },
    {
        "name": "Klettersteig Königsjodler",
        "state": "Austria",
        "region": "Salzburg ",
        "locality": "Steinernes Meer ",
        "lat": 47.420673,
        "lon": 13.059839,
        "begin": "Mühlbach am Hochkönig (859 m)",
        "targetheight": 2941,
        "duration": 720,
        "difficultynum": 4.5,
        "difficultystr": "D",
        "link": "http://klettersteig.de/klettersteig/klettersteig_koenigsjodler/226"
    },
    {
        "name": "Via ferrata Monte Emilius",
        "state": "Italy",
        "region": "Piemont / Aosta ",
        "locality": "Aostatal ",
        "lat": 45.68212,
        "lon": 7.36883,
        "begin": "Aosta (583 m)",
        "targetheight": 3559,
        "duration": 630,
        "difficultynum": 4.5,
        "difficultystr": "D",
        "link": "http://klettersteig.de/klettersteig/via_ferrata_monte_emilius/1622"
    },
    {
        "name": "Nackter Hund Klettersteig",
        "state": "Austria",
        "region": "Salzburg ",
        "locality": "Loferer + Leoganger Steinberge ",
        "lat": 47.547513,
        "lon": 12.631688,
        "begin": "Lofer (626m) im NO bzw. St. Ulrich a.P. (847 m) im SW",
        "targetheight": 2506,
        "duration": 600,
        "difficultynum": 4.5,
        "difficultystr": "D",
        "link": "http://klettersteig.de/klettersteig/nackter_hund_klettersteig/228"
    },
    {
        "name": "Klettersteig Aldo Roghel",
        "state": "Italy",
        "region": "Südtirol-Trentino ",
        "locality": "Sextener Dolomiten ",
        "lat": 46.622974899064,
        "lon": 12.399959564209,
        "begin": "Sexten (1310 m)",
        "targetheight": 2550,
        "duration": 600,
        "difficultynum": 4.5,
        "difficultystr": "D",
        "link": "http://klettersteig.de/klettersteig/klettersteig_aldo_roghel/665"
    },
    {
        "name": "La via ferrata Reclaviez (au Bois du Pomier) (auch Via ferrata Reclavier)(Revaclier)",
        "state": "France",
        "region": "Rhone Alpes ",
        "locality": "Savoyen / Mont-Blanc ",
        "lat": 46.1333,
        "lon": 6.08333,
        "begin": "St-Julien-en-Genevois (528 m)",
        "targetheight": 950,
        "duration": 110,
        "difficultynum": 4.5,
        "difficultystr": "D",
        "link": "http://klettersteig.de/klettersteig/la_via_ferrata_reclaviez_au_bois_du_pomier_auch_via_ferrata_reclavier_revaclier_/1171"
    },
    {
        "name": "Via ferrata dels Racons",
        "state": "Andorra",
        "region": "Pyrenäen ",
        "locality": "Pyrenäen ",
        "lat": 42.564053,
        "lon": 1.591179,
        "begin": "Canillo (1531m)",
        "targetheight": 1730,
        "duration": 105,
        "difficultynum": 4.5,
        "difficultystr": "D",
        "link": "http://klettersteig.de/klettersteig/via_ferrata_dels_racons/1023"
    },
    {
        "name": "Via Kapf",
        "state": "Austria",
        "region": "Vorarlberg ",
        "locality": "Bregenzer Wald ",
        "lat": 47.34221,
        "lon": 9.68437,
        "begin": "Götzis (448 m)",
        "targetheight": 1153,
        "duration": 105,
        "difficultynum": 4.5,
        "difficultystr": "D",
        "link": "http://klettersteig.de/klettersteig/via_kapf/21"
    },
    {
        "name": "Via ferrata rocca dei Corvi",
        "state": "Italy",
        "region": "Ligurien / Riviera ",
        "locality": "Ligurische Alpen ",
        "lat": 44.26683,
        "lon": 7.97215,
        "begin": "Mondovi",
        "targetheight": 1050,
        "duration": 105,
        "difficultynum": 4.5,
        "difficultystr": "D",
        "link": "http://klettersteig.de/klettersteig/via_ferrata_rocca_dei_corvi/1435"
    },
    {
        "name": "Via ferrata Sant Vicenc d'Enclar",
        "state": "Andorra",
        "region": "Pyrenäen ",
        "locality": "Pyrenäen ",
        "lat": 42.495859,
        "lon": 1.493579,
        "begin": "Santa Coloma, Andorra la Vella",
        "targetheight": 1190,
        "duration": 90,
        "difficultynum": 4.5,
        "difficultystr": "D",
        "link": "http://klettersteig.de/klettersteig/via_ferrata_sant_vicenc_d_enclar/1429"
    },
    {
        "name": "Hias-Klettersteig",
        "state": "Austria",
        "region": "Steiermark ",
        "locality": "Dachstein ",
        "lat": 47.437,
        "lon": 13.716,
        "begin": "Ramsau (1135 m)",
        "targetheight": 1100,
        "duration": 90,
        "difficultynum": 4.5,
        "difficultystr": "D",
        "link": "http://klettersteig.de/klettersteig/rosina_klettersteig/2085"
    },
    {
        "name": "Via Kessi",
        "state": "Austria",
        "region": "Vorarlberg ",
        "locality": "Bregenzer Wald ",
        "lat": 47.33871,
        "lon": 9.68315,
        "begin": "Götzis (448 m)",
        "targetheight": 1153,
        "duration": 90,
        "difficultynum": 4.5,
        "difficultystr": "D",
        "link": "http://klettersteig.de/klettersteig/via_kessi/20"
    },
    {
        "name": "La via ferrata du Fort l´Ecluse",
        "state": "France",
        "region": "Rhone Alpes ",
        "locality": "Savoyen / Mont-Blanc ",
        "lat": 46.1211725124696,
        "lon": 5.89049577713013,
        "begin": "Annecy (448 m)",
        "targetheight": 580,
        "duration": 90,
        "difficultynum": 4.5,
        "difficultystr": "D",
        "link": "http://klettersteig.de/klettersteig/la_via_ferrata_du_fort_l_ecluse/1518"
    },
    {
        "name": "Via ferrata Cascade de la Fraiche",
        "state": "France",
        "region": "Rhone Alpes ",
        "locality": "Savoyen / Mont-Blanc ",
        "lat": 45.37861835,
        "lon": 6.72801286,
        "begin": "Pralognan-la-Vanoise (1418 m)",
        "targetheight": 1600,
        "duration": 90,
        "difficultynum": 4.5,
        "difficultystr": "D",
        "link": "http://klettersteig.de/klettersteig/via_ferrata_cascade_de_la_fraiche/944"
    },
    {
        "name": "Klettersteig Gemmiwand / Erlebnisklettersteig Gemmi Leukerbad",
        "state": "Swiss",
        "region": "Wallis ",
        "locality": "Berner Alpen Süd ",
        "lat": 46.39738,
        "lon": 7.61452,
        "begin": "Leukerbad (1401 m)",
        "targetheight": 2346,
        "duration": 90,
        "difficultynum": 4.5,
        "difficultystr": "D",
        "link": "http://klettersteig.de/klettersteig/klettersteig_gemmiwand_erlebnisklettersteig_gemmi_leukerbad/1829"
    },
    {
        "name": "Via Ferrata de Sacs",
        "state": "Spain",
        "region": "Aragon ",
        "locality": "Huesca ",
        "lat": 42.6192,
        "lon": 0.535,
        "begin": "Benasque",
        "duration": 90,
        "difficultynum": 4.5,
        "difficultystr": "D",
        "link": "http://klettersteig.de/klettersteig/via_ferrata_de_sacs/1200"
    },
    {
        "name": "Weiße Gams-Klettersteig",
        "state": "Austria",
        "region": "Salzburg ",
        "locality": "Steinernes Meer ",
        "lat": 47.519,
        "lon": 12.754,
        "begin": "Weißbach bei Lofer (667 m)",
        "targetheight": 800,
        "duration": 75,
        "difficultynum": 4.5,
        "difficultystr": "D",
        "link": "http://klettersteig.de/klettersteig/weisse_gams_klettersteig/1744"
    },
    {
        "name": "Danielsberg-Klettersteig",
        "state": "Austria",
        "region": "Kärnten ",
        "locality": "Ankogelgruppe/Nockberge ",
        "lat": 46.88483,
        "lon": 13.28804,
        "begin": "Kolbnitz (613 m)",
        "targetheight": 966,
        "duration": 60,
        "difficultynum": 4.5,
        "difficultystr": "D",
        "link": "http://klettersteig.de/klettersteig/danielsberg_klettersteig/1545"
    },
    {
        "name": "Via Ferrata del Almadeo",
        "state": "Spain",
        "region": "Aragon ",
        "locality": "Zaragoza ",
        "lat": 41.0074,
        "lon": -0.9202,
        "begin": "Huesa del Comun",
        "targetheight": 1035,
        "duration": 60,
        "difficultynum": 4.5,
        "difficultystr": "D",
        "link": "http://klettersteig.de/klettersteig/via_ferrata_del_almadeo/1953"
    },
    {
        "name": "DAV-Klettersteig ´Gipfelweg´",
        "state": "Germany",
        "region": "Sachsen ",
        "locality": "Erzgebirge ",
        "lat": 50.6653490436204,
        "lon": 13.0610060691833,
        "begin": "Wolkenstein (Sachsen)",
        "targetheight": 400,
        "duration": 30,
        "difficultynum": 4.5,
        "difficultystr": "D",
        "link": "http://klettersteig.de/klettersteig/dav_klettersteig_gipfelweg_/1470"
    },
    {
        "name": "Übungsklettersteig Höfatsblick",
        "state": "Germany",
        "region": "Bayern ",
        "locality": "Allgäuer Alpen (Bayern) ",
        "lat": 47.4139,
        "lon": 10.34698,
        "begin": "Oberstdorf",
        "targetheight": 1937,
        "duration": 15,
        "difficultynum": 4.5,
        "difficultystr": "D",
        "link": "http://klettersteig.de/klettersteig/uebungsklettersteig_hoefatsblick/1746"
    },
    {
        "name": "Via ferrata ´Famiglia Alto´",
        "state": "Germany",
        "region": "Bayern ",
        "locality": "Chiemgauer Alpen ",
        "lat": 47.83515,
        "lon": 12.48454,
        "begin": "Übersee am Chiemsee (525m)",
        "targetheight": 530,
        "duration": 10,
        "difficultynum": 4.5,
        "difficultystr": "D",
        "link": "http://klettersteig.de/klettersteig/via_ferrata_famiglia_alto_/1571"
    },
    {
        "name": "Klettersteig-Arena Höhenburg",
        "state": "Austria",
        "region": "Salzburg ",
        "locality": "Glocknergruppe ",
        "lat": 47.1711,
        "lon": 12.72331,
        "begin": "Kaprun",
        "targetheight": 2108,
        "difficultynum": 4,
        "difficultystr": "C/D",
        "link": "http://klettersteig.de/klettersteig/klettersteig_arena_hoehenburg/1864"
    },
    {
        "name": "Selbhorn Klettersteig",
        "state": "Austria",
        "region": "Salzburg ",
        "locality": "Steinernes Meer ",
        "lat": 47.443,
        "lon": 12.964,
        "begin": "Maria Alm",
        "targetheight": 2642,
        "difficultynum": 4,
        "difficultystr": "C/D",
        "link": "http://klettersteig.de/klettersteig/selbhorn_klettersteig/1686"
    },
    {
        "name": "Via ferrata Les Contrebandiers",
        "state": "France",
        "region": "Rhone Alpes ",
        "locality": "Maurienne ",
        "lat": 45.2,
        "lon": 6.66667,
        "begin": "Modane / Valfréjus",
        "targetheight": 2579,
        "difficultynum": 4,
        "difficultystr": "C/D",
        "link": "http://klettersteig.de/klettersteig/via_ferrata_les_contrebandiers/1165"
    },
    {
        "name": "Norina Klettersteig",
        "state": "Italy",
        "region": "Friaul ",
        "locality": "Julische Alpen (Belluno / Friaul) ",
        "lat": 46.42526,
        "lon": 13.39666,
        "begin": "Dogna (500 m)",
        "targetheight": 2121,
        "duration": 570,
        "difficultynum": 4,
        "difficultystr": "C/D",
        "link": "http://klettersteig.de/klettersteig/norina_klettersteig/540"
    },
    {
        "name": "Laurenzi Klettersteig",
        "state": "Italy",
        "region": "Südtirol-Trentino ",
        "locality": "Rosengarten ",
        "lat": 46.49084,
        "lon": 11.63982,
        "begin": "Campitello (1414m)",
        "targetheight": 2852,
        "duration": 555,
        "difficultynum": 4,
        "difficultystr": "C/D",
        "link": "http://klettersteig.de/klettersteig/laurenzi_klettersteig/594"
    },
    {
        "name": "Via ferrata Zandonella (Süd)",
        "state": "Italy",
        "region": "Südtirol-Trentino ",
        "locality": "Sextener Dolomiten ",
        "lat": 46.64208,
        "lon": 12.38249,
        "begin": "Sexten (1316 m)",
        "targetheight": 2936,
        "duration": 540,
        "difficultynum": 4,
        "difficultystr": "C/D",
        "link": "http://klettersteig.de/klettersteig/via_ferrata_zandonella_sued_/662"
    },
    {
        "name": "Klettersteig Anita Goitan",
        "state": "Italy",
        "region": "Friaul ",
        "locality": "Julische Alpen (Belluno / Friaul) ",
        "lat": 46.429096,
        "lon": 13.496297,
        "begin": "Tarvis (743 m)",
        "targetheight": 2485,
        "duration": 525,
        "difficultynum": 4,
        "difficultystr": "C/D",
        "link": "http://klettersteig.de/klettersteig/klettersteig_anita_goitan/535"
    },
    {
        "name": "Jubiläumsgrat",
        "state": "Germany",
        "region": "Bayern ",
        "locality": "Wetterstein (Bayern) ",
        "lat": 47.4157758828011,
        "lon": 10.9939670562744,
        "begin": "Garmisch-Partenkirchen",
        "targetheight": 2962,
        "duration": 510,
        "difficultynum": 4,
        "difficultystr": "C/D",
        "link": "http://klettersteig.de/klettersteig/jubilaeumsgrat/89"
    },
    {
        "name": "Sentiero attrezzato Ceria Merlone",
        "state": "Italy",
        "region": "Friaul ",
        "locality": "Julische Alpen (Belluno / Friaul) ",
        "lat": 46.42113,
        "lon": 13.45993,
        "begin": "Sella Nevea",
        "targetheight": 2554,
        "duration": 510,
        "difficultynum": 4,
        "difficultystr": "C/D",
        "link": "http://klettersteig.de/klettersteig/sentiero_attrezzato_ceria_merlone/536"
    },
    {
        "name": "Gebirgsjägersteig",
        "state": "Austria",
        "region": "Tirol ",
        "locality": "Lienzer Dolomiten ",
        "lat": 46.7684898,
        "lon": 12.8023691,
        "begin": "Lienz (673 m)",
        "targetheight": 2772,
        "duration": 495,
        "difficultynum": 4,
        "difficultystr": "C/D",
        "link": "http://klettersteig.de/klettersteig/gebirgsjaegersteig/404"
    },
    {
        "name": "Schneegupfgrat",
        "state": "Austria",
        "region": "Tirol ",
        "locality": "Tuxer Alpen ",
        "lat": 47.05323,
        "lon": 11.65884,
        "begin": "Mayrhofen",
        "targetheight": 3476,
        "duration": 480,
        "difficultynum": 4,
        "difficultystr": "C/D",
        "link": "http://klettersteig.de/klettersteig/schneegupfgrat/191"
    },
    {
        "name": "Madonnen-Steig",
        "state": "Austria",
        "region": "Tirol ",
        "locality": "Lienzer Dolomiten ",
        "lat": 46.7684898,
        "lon": 12.8023691,
        "begin": "Lienz (673 m)",
        "targetheight": 2486,
        "duration": 480,
        "difficultynum": 4,
        "difficultystr": "C/D",
        "link": "http://klettersteig.de/klettersteig/gebirgsjaegersteig/404"
    },
    {
        "name": "Baltschieder Klettersteig",
        "state": "Swiss",
        "region": "Wallis ",
        "locality": "Berner Alpen Süd ",
        "lat": 46.3485865313249,
        "lon": 7.87558794021606,
        "begin": "Ausserberg (1008 m)",
        "targetheight": 2470,
        "duration": 480,
        "difficultynum": 4,
        "difficultystr": "C/D",
        "link": "http://klettersteig.de/klettersteig/baltschieder_klettersteig/885"
    },
    {
        "name": "Grintovec-Überschreitung",
        "state": "Slovenia",
        "region": "Slowenien Nord ",
        "locality": "Steiner Alpen (Slowenien) ",
        "lat": 46.376042,
        "lon": 14.537953,
        "begin": "Jezersko (880 m)",
        "targetheight": 2558,
        "duration": 465,
        "difficultynum": 4,
        "difficultystr": "C/D",
        "link": "http://klettersteig.de/klettersteig/grintovec_ueberschreitung/1494"
    },
    {
        "name": "Leoganger Nord",
        "state": "Austria",
        "region": "Salzburg ",
        "locality": "Loferer + Leoganger Steinberge ",
        "lat": 47.475,
        "lon": 12.758677,
        "begin": "Leogang (788m)",
        "targetheight": 2160,
        "duration": 450,
        "difficultynum": 4,
        "difficultystr": "C/D",
        "link": "http://klettersteig.de/klettersteig/leoganger_nord/1121"
    },
    {
        "name": "Teufelklettersteig",
        "state": "Austria",
        "region": "Steiermark ",
        "locality": "Ennstaler Alpen ",
        "lat": 47.6236944180931,
        "lon": 14.6505260467529,
        "begin": "Gstatterboden (578 m)",
        "targetheight": 1820,
        "duration": 450,
        "difficultynum": 4,
        "difficultystr": "C/D",
        "link": "http://klettersteig.de/klettersteig/teufelklettersteig/374"
    },
    {
        "name": "Gstellihorn Nordostgrat Klettersteig",
        "state": "Swiss",
        "region": "Schweizer Mittelland ",
        "locality": "Berner Alpen Nord ",
        "lat": 46.3514895215237,
        "lon": 7.28075981140137,
        "begin": "Gsteig (1184 m)",
        "targetheight": 2510,
        "duration": 450,
        "difficultynum": 4,
        "difficultystr": "C/D",
        "link": "http://klettersteig.de/klettersteig/gstellihorn_nordostgrat_klettersteig/1042"
    },
    {
        "name": "Salbit-Kettenweg",
        "state": "Swiss",
        "region": "Zentralschweiz ",
        "locality": "Urner Alpen ",
        "lat": 46.6752366886043,
        "lon": 8.51474761962891,
        "begin": "Göschenen (1106 m)",
        "targetheight": 2480,
        "duration": 450,
        "difficultynum": 4,
        "difficultystr": "C/D",
        "link": "http://klettersteig.de/klettersteig/salbit_kettenweg/861"
    },
    {
        "name": "Südwand Klettersteig (Tschenglser Hochwand)",
        "state": "Italy",
        "region": "Südtirol-Trentino ",
        "locality": "Ortler ",
        "lat": 46.56042,
        "lon": 10.62805,
        "begin": "Sulden (1900m)",
        "targetheight": 3375,
        "duration": 450,
        "difficultynum": 4,
        "difficultystr": "C/D",
        "link": "http://klettersteig.de/klettersteig/suedwand_klettersteig_tschenglser_hochwand_/1391"
    },
    {
        "name": "Eiskar Klettersteig",
        "state": "Austria",
        "region": "Kärnten ",
        "locality": "Karnische Alpen (Kärnten) ",
        "lat": 46.613803,
        "lon": 12.904741,
        "begin": "Kötschach-Mauthen (705 m)",
        "targetheight": 2230,
        "duration": 420,
        "difficultynum": 4,
        "difficultystr": "C/D",
        "link": "http://klettersteig.de/klettersteig/eiskar_klettersteig/1293"
    },
    {
        "name": "Austria Klettersteig Sinabell / Sinabell Südwand Klettersteig",
        "state": "Austria",
        "region": "Steiermark ",
        "locality": "Dachstein ",
        "lat": 47.4251730061,
        "lon": 13.6776190996,
        "begin": "Ramsau",
        "targetheight": 2349,
        "duration": 420,
        "difficultynum": 4,
        "difficultystr": "C/D",
        "link": "http://klettersteig.de/klettersteig/austria_klettersteig_sinabell_sinabell_suedwand_klettersteig/1865"
    },
    {
        "name": "Wildkar Klettersteig",
        "state": "Austria",
        "region": "Steiermark ",
        "locality": "Dachstein ",
        "lat": 47.5022429843061,
        "lon": 13.608455657959,
        "begin": "Obertraun (513 m)",
        "targetheight": 2560,
        "duration": 420,
        "difficultynum": 4,
        "difficultystr": "C/D",
        "link": "http://klettersteig.de/klettersteig/wildkar_klettersteig/353"
    },
    {
        "name": "Allmaier-Toni-Klettersteig",
        "state": "Austria",
        "region": "Tirol ",
        "locality": "Lienzer Dolomiten ",
        "lat": 46.7684898,
        "lon": 12.8023691,
        "begin": "Lienz (673 m)",
        "targetheight": 2539,
        "duration": 420,
        "difficultynum": 4,
        "difficultystr": "C/D",
        "link": "http://klettersteig.de/klettersteig/gebirgsjaegersteig/404"
    },
    {
        "name": "Giovanni Lipella Klettersteig",
        "state": "Italy",
        "region": "Venetien ",
        "locality": "Tofanen ",
        "lat": 46.53257,
        "lon": 12.04412,
        "begin": "Pocol (Richtung Passo Falzarego)",
        "targetheight": 3225,
        "duration": 405,
        "difficultynum": 4,
        "difficultystr": "C/D",
        "link": "http://klettersteig.de/klettersteig/giovanni_lipella_klettersteig/636"
    },
    {
        "name": "Ilmspitz Klettersteig",
        "state": "Austria",
        "region": "Tirol ",
        "locality": "Stubaier Alpen (Tirol) ",
        "lat": 47.05736,
        "lon": 11.33008,
        "begin": "Neustift-Neder/Stubaital, 970 m)",
        "targetheight": 2692,
        "duration": 390,
        "difficultynum": 4,
        "difficultystr": "C/D",
        "link": "http://klettersteig.de/klettersteig/ilmspitz_klettersteig/184"
    },
    {
        "name": "Rote Säule Klettersteig (Rote Saile)",
        "state": "Austria",
        "region": "Tirol ",
        "locality": "Venedigergruppe ",
        "lat": 47.022356,
        "lon": 12.399254,
        "begin": "Prägraten (1310 m)",
        "targetheight": 2820,
        "duration": 390,
        "difficultynum": 4,
        "difficultystr": "C/D",
        "link": "http://klettersteig.de/klettersteig/rote_saeule_klettersteig_rote_saile_/416"
    },
    {
        "name": "Übungsklettersteig Solsteinhaus",
        "state": "Austria",
        "region": "Tirol ",
        "locality": "Karwendel (Tirol) ",
        "lat": 47.31446,
        "lon": 11.29278,
        "begin": "Hochzirl (922 m)",
        "targetheight": 1806,
        "duration": 360,
        "difficultynum": 4,
        "difficultystr": "C/D",
        "link": "http://klettersteig.de/klettersteig/uebungsklettersteig_solsteinhaus/1403"
    },
    {
        "name": "Via ferrata des Mines du Grand Clot",
        "state": "France",
        "region": "Provence ",
        "locality": "Provence-Alpes ",
        "lat": 45.0429,
        "lon": 6.25414,
        "begin": "La Grave (1526 m)",
        "targetheight": 2164,
        "duration": 360,
        "difficultynum": 4,
        "difficultystr": "C/D",
        "link": "http://klettersteig.de/klettersteig/via_ferrata_des_mines_du_grand_clot/978"
    },
    {
        "name": "Via ferrata du Telegraphe (teilweise gesperrt)",
        "state": "France",
        "region": "Rhone Alpes ",
        "locality": "Maurienne ",
        "lat": 45.2167,
        "lon": 6.46667,
        "begin": "St-Michel-de-Maurienne (707 m)",
        "targetheight": 1612,
        "duration": 360,
        "difficultynum": 4,
        "difficultystr": "C/D",
        "link": "http://klettersteig.de/klettersteig/via_ferrata_du_telegraphe_teilweise_gesperrt_/954"
    },
    {
        "name": "Via Eterna - Brigata Cadore",
        "state": "Italy",
        "region": "Venetien ",
        "locality": "Marmoladagebiet ",
        "lat": 46.44984,
        "lon": 11.89491,
        "begin": "Canazei (1440 m)",
        "targetheight": 2962,
        "duration": 360,
        "difficultynum": 4,
        "difficultystr": "C/D",
        "link": "http://klettersteig.de/klettersteig/via_eterna_brigata_cadore/587"
    },
    {
        "name": "Prisojnik Nordwand Klettersteig (Fensterweg)",
        "state": "Slovenia",
        "region": "Slowenien Nord ",
        "locality": "Julische Alpen (Slowenien) ",
        "lat": 46.42868,
        "lon": 13.75622,
        "begin": "Kranjska Gora (Kronau), 810 m",
        "targetheight": 2547,
        "duration": 360,
        "difficultynum": 4,
        "difficultystr": "C/D",
        "link": "http://klettersteig.de/klettersteig/prisojnik_nordwand_klettersteig_fensterweg_/510"
    },
    {
        "name": "Tiroler Weg",
        "state": "Austria",
        "region": "Tirol ",
        "locality": "Ötztaler Alpen (Tirol) ",
        "lat": 46.84019,
        "lon": 10.55411,
        "begin": "Nauders (1394 m)",
        "targetheight": 2982,
        "duration": 330,
        "difficultynum": 4,
        "difficultystr": "C/D",
        "link": "http://klettersteig.de/klettersteig/tiroler_weg/154"
    },
    {
        "name": "Via ferrata Emilio Detomasi",
        "state": "Italy",
        "region": "Piemont / Aosta ",
        "locality": "Aostatal ",
        "lat": 45.89659,
        "lon": 7.87922,
        "begin": "Alagna Valsesia",
        "targetheight": 2760,
        "duration": 330,
        "difficultynum": 4,
        "difficultystr": "C/D",
        "link": "http://klettersteig.de/klettersteig/via_ferrata_emilio_detomasi/1630"
    },
    {
        "name": "Arlberger Klettersteig",
        "state": "Austria",
        "region": "Tirol ",
        "locality": "Lechtaler Alpen ",
        "lat": 47.155034,
        "lon": 10.235595,
        "begin": "St. Anton (1284 m)",
        "targetheight": 2752,
        "duration": 315,
        "difficultynum": 4,
        "difficultystr": "C/D",
        "link": "http://klettersteig.de/klettersteig/arlberger_klettersteig/45"
    },
    {
        "name": "Hans-von-Haid Klettersteig",
        "state": "Austria",
        "region": "Niederösterreich ",
        "locality": "Rax (West, NÖ) ",
        "lat": 47.6972851184811,
        "lon": 15.736026763916,
        "begin": "Prein (680 m)",
        "targetheight": 1783,
        "duration": 300,
        "difficultynum": 4,
        "difficultystr": "C/D",
        "link": "http://klettersteig.de/klettersteig/hans_von_haid_klettersteig/312"
    },